Date.Rptd,DATE.OCC,TIME.OCC,AREA,AREA.NAME,Part.1.2,Crm.Cd,Crm.Cd.Desc,Mocodes,Vict.Age,Vict.Sex,Vict.Descent,Premis.Cd,Premis.Desc,Weapon.Used.Cd,Weapon.Desc,Status,Status.Desc,Crm.Cd.1,LOCATION,LAT,LON,Year,Month,Date
08/07/2021 12:00:00 AM,08/07/2021 12:00:00 AM,700,13,Newton,2,901,VIOLATION OF RESTRAINING ORDER,1202 2038 0360 0319,70,F,H,501,SINGLE FAMILY DWELLING,NA,,IC,Invest Cont,901,6900 S  BROADWAY,33.9771,-118.2783,08,2021,2021-08-07
05/29/2020 12:00:00 AM,05/29/2020 12:00:00 AM,1515,13,Newton,2,903,CONTEMPT OF COURT,1814 0416,20,F,H,501,SINGLE FAMILY DWELLING,NA,,AA,Adult Arrest,903,4400 S  SAN PEDRO                    ST,34.0034,-118.2696,05,2020,2020-05-29
09/23/2020 12:00:00 AM,09/22/2020 12:00:00 AM,2300,19,Mission,2,745,VANDALISM - MISDEAMEANOR ($399 OR UNDER),0329,48,F,H,123,PARKING UNDERGROUND/BUILDING,NA,,IC,Invest Cont,745,12900    DRONFIELD                    AV,34.3048,-118.4333,09,2020,2020-09-22
01/03/2021 12:00:00 AM,01/03/2021 12:00:00 AM,1408,15,N Hollywood,2,624,BATTERY - SIMPLE ASSAULT,0361 0400 0416,50,F,W,502,"MULTI-UNIT DWELLING (APARTMENT, DUPLEX, ETC)",500,UNKNOWN WEAPON/OTHER WEAPON,AO,Adult Other,624,11200    MORRISON                     ST,34.1608,-118.3746,01,2021,2021-01-03
11/02/2022 12:00:00 AM,11/01/2022 12:00:00 AM,600,16,Foothill,2,354,THEFT OF IDENTITY,1501,35,F,H,602,BANK,NA,,IC,Invest Cont,354,7800    APPERSON                     ST,34.256,-118.3027,11,2022,2022-11-01
02/27/2021 12:00:00 AM,02/27/2021 12:00:00 AM,1000,1,Central,2,624,BATTERY - SIMPLE ASSAULT,0917 0104 0448 0444 0344 1822,22,M,H,203,OTHER BUSINESS,400,"STRONG-ARM (HANDS, FIST, FEET OR BODILY FORCE)",IC,Invest Cont,624,800 S  FIGUEROA                     ST,34.0476,-118.2615,02,2021,2021-02-27
10/15/2023 12:00:00 AM,10/15/2023 12:00:00 AM,930,14,Pacific,2,624,BATTERY - SIMPLE ASSAULT,0416 1402 2004 0342 0444,47,M,W,102,SIDEWALK,500,UNKNOWN WEAPON/OTHER WEAPON,IC,Invest Cont,624,DUDLEY                       AV,33.9942,-118.4795,10,2023,2023-10-15
07/31/2023 12:00:00 AM,07/30/2023 12:00:00 AM,2030,10,West Valley,2,946,OTHER MISCELLANEOUS CRIME,1822 0603,43,F,H,501,SINGLE FAMILY DWELLING,NA,,AO,Adult Other,946,6800    AMIGO                        AV,34.1939,-118.5386,07,2023,2023-07-30
07/05/2023 12:00:00 AM,07/04/2023 12:00:00 AM,1007,4,Hollenbeck,1,440,THEFT PLAIN - PETTY ($950 & UNDER),0344,41,F,H,402,MARKET,NA,,IC,Invest Cont,440,2700 E  1ST                          ST,34.0421,-118.206,07,2023,2023-07-04
06/30/2022 12:00:00 AM,06/30/2022 12:00:00 AM,2202,3,Southwest,2,740,"VANDALISM - FELONY ($400 & OVER, ALL CHURCH VANDALISMS)",1822 1300 0329 2001,21,X,X,122,"VEHICLE, PASSENGER/TRUCK",NA,,IC,Invest Cont,740,1200 W  37TH                         PL,34.02,-118.2944,06,2022,2022-06-30
06/01/2023 12:00:00 AM,04/07/2023 12:00:00 AM,1400,2,Rampart,2,662,"BUNCO, GRAND THEFT",0701 0800 0913 0344,66,M,O,708,CHURCH/CHAPEL (CHANGED 03-03 FROM CHURCH/TEMPLE),NA,,IC,Invest Cont,662,2400 W  8TH                          ST,34.0563,-118.281,04,2023,2023-04-07
02/22/2021 12:00:00 AM,02/22/2021 12:00:00 AM,1455,21,Topanga,2,354,THEFT OF IDENTITY,1822,45,F,W,501,SINGLE FAMILY DWELLING,NA,,IC,Invest Cont,354,6100    PETERSON                     AV,34.1819,-118.6462,02,2021,2021-02-22
09/04/2021 12:00:00 AM,09/04/2021 12:00:00 AM,37,9,Van Nuys,2,354,THEFT OF IDENTITY,1822,29,M,W,101,STREET,NA,,AA,Adult Arrest,354,ORION,34.1939,-118.4706,09,2021,2021-09-04
09/26/2023 12:00:00 AM,09/26/2023 12:00:00 AM,1740,20,Olympic,2,626,INTIMATE PARTNER - SIMPLE ASSAULT,2000 1814 1243 1218 2004 0400 0416 0417 0446 2060,42,F,H,102,SIDEWALK,400,"STRONG-ARM (HANDS, FIST, FEET OR BODILY FORCE)",AA,Adult Arrest,626,3100 W  8TH                          ST,34.0577,-118.2943,09,2023,2023-09-26
06/23/2022 12:00:00 AM,06/03/2022 12:00:00 AM,200,6,Hollywood,1,331,THEFT FROM MOTOR VEHICLE - GRAND ($950.01 AND OVER),1822 1300 0329 0385,29,M,W,101,STREET,NA,,IC,Invest Cont,331,4900 W  LEMON GROVE                  AV,34.0863,-118.3033,06,2022,2022-06-03
08/28/2023 12:00:00 AM,08/28/2023 12:00:00 AM,2130,1,Central,2,625,OTHER ASSAULT,2004 0400 0356 0913,46,F,B,101,STREET,400,"STRONG-ARM (HANDS, FIST, FEET OR BODILY FORCE)",IC,Invest Cont,625,400 S  SAN PEDRO                    ST,34.0459,-118.243,08,2023,2023-08-28
08/28/2022 12:00:00 AM,08/27/2022 12:00:00 AM,1900,6,Hollywood,2,740,"VANDALISM - FELONY ($400 & OVER, ALL CHURCH VANDALISMS)",1822 1300 1307 0329 1205,28,M,W,101,STREET,NA,,IC,Invest Cont,740,6300 W  SUNSET                       BL,34.098,-118.3266,08,2022,2022-08-27
03/26/2022 12:00:00 AM,03/26/2022 12:00:00 AM,930,2,Rampart,1,220,ATTEMPTED ROBBERY,1266 1822 0104 0325 0416 0446 0400 0334 0447 0945,37,M,W,402,MARKET,400,"STRONG-ARM (HANDS, FIST, FEET OR BODILY FORCE)",IC,Invest Cont,220,1700 W  6TH                          ST,34.0573,-118.2699,03,2022,2022-03-26
09/15/2022 12:00:00 AM,09/11/2022 12:00:00 AM,100,20,Olympic,2,624,BATTERY - SIMPLE ASSAULT,0400 0416 1300 1822,26,M,H,101,STREET,400,"STRONG-ARM (HANDS, FIST, FEET OR BODILY FORCE)",IC,Invest Cont,624,OLYMPIC                      BL,34.0526,-118.3042,09,2022,2022-09-11
02/13/2020 12:00:00 AM,02/07/2020 12:00:00 AM,1400,20,Olympic,2,662,"BUNCO, GRAND THEFT",1822 0701,66,M,H,502,"MULTI-UNIT DWELLING (APARTMENT, DUPLEX, ETC)",NA,,IC,Invest Cont,662,1600 S  NEW HAMPSHIRE                AV,34.0443,-118.2924,02,2020,2020-02-07
04/09/2021 12:00:00 AM,04/09/2021 12:00:00 AM,1130,14,Pacific,2,624,BATTERY - SIMPLE ASSAULT,0400 1822,56,F,B,203,OTHER BUSINESS,400,"STRONG-ARM (HANDS, FIST, FEET OR BODILY FORCE)",IC,Invest Cont,624,5400 W  CENTINELA                    AV,0,0,04,2021,2021-04-09
09/24/2020 12:00:00 AM,03/22/2020 12:00:00 AM,1624,8,West LA,2,354,THEFT OF IDENTITY,0100 0928,30,M,W,502,"MULTI-UNIT DWELLING (APARTMENT, DUPLEX, ETC)",NA,,IC,Invest Cont,354,1400 S  WESTGATE                     AV,34.0431,-118.4599,03,2020,2020-03-22
09/18/2022 12:00:00 AM,09/18/2022 12:00:00 AM,300,13,Newton,2,624,BATTERY - SIMPLE ASSAULT,0400 0416 0417 0429 1218 1822,46,M,H,102,SIDEWALK,500,UNKNOWN WEAPON/OTHER WEAPON,IC,Invest Cont,624,100 W  66TH                         ST,33.9796,-118.2739,09,2022,2022-09-18
08/21/2022 12:00:00 AM,08/20/2022 12:00:00 AM,1030,3,Southwest,1,480,BIKE - STOLEN,1822 1251 2004 0344 1606,21,F,W,501,SINGLE FAMILY DWELLING,NA,,AO,Adult Other,480,600 W  28TH                         ST,34.0261,-118.2774,08,2022,2022-08-20
01/30/2022 12:00:00 AM,01/30/2022 12:00:00 AM,530,1,Central,1,761,BRANDISH WEAPON,0334 1822 1218 2004,28,M,W,102,SIDEWALK,102,HAND GUN,IC,Invest Cont,761,7TH                          ST,34.0445,-118.2523,01,2022,2022-01-30
01/16/2022 12:00:00 AM,01/16/2022 12:00:00 AM,1825,3,Southwest,1,230,"ASSAULT WITH DEADLY WEAPON, AGGRAVATED ASSAULT",0419 0445 0302 0334 0411 0913 1238 1309 0421 0422,40,F,B,501,SINGLE FAMILY DWELLING,102,HAND GUN,AO,Adult Other,230,2900 W  43RD                         PL,34.0044,-118.3248,01,2022,2022-01-16
10/19/2020 12:00:00 AM,10/16/2020 12:00:00 AM,1200,8,West LA,2,624,BATTERY - SIMPLE ASSAULT,0416 1802,56,F,B,710,OTHER PREMISE,400,"STRONG-ARM (HANDS, FIST, FEET OR BODILY FORCE)",AO,Adult Other,624,11400    SANTA MONICA                 BL,34.0457,-118.4511,10,2020,2020-10-16
11/02/2021 12:00:00 AM,10/30/2021 12:00:00 AM,300,1,Central,2,740,"VANDALISM - FELONY ($400 & OVER, ALL CHURCH VANDALISMS)",0329 1307,31,M,B,122,"VEHICLE, PASSENGER/TRUCK",NA,,IC,Invest Cont,740,7TH,34.0377,-118.2425,10,2021,2021-10-30
08/12/2021 12:00:00 AM,08/12/2021 12:00:00 AM,1500,8,West LA,2,624,BATTERY - SIMPLE ASSAULT,1218 1822 0400,57,F,W,210,RESTAURANT/FAST FOOD,400,"STRONG-ARM (HANDS, FIST, FEET OR BODILY FORCE)",IC,Invest Cont,624,1000    WESTWOOD                     BL,34.0608,-118.4454,08,2021,2021-08-12
02/24/2023 12:00:00 AM,02/23/2023 12:00:00 AM,950,8,West LA,2,662,"BUNCO, GRAND THEFT",0701 0800 0344 1822 1202,61,M,W,203,OTHER BUSINESS,NA,,IC,Invest Cont,662,10200    BRIARWOOD                    DR,34.1161,-118.4435,02,2023,2023-02-23
01/08/2022 12:00:00 AM,01/08/2022 12:00:00 AM,710,19,Mission,2,624,BATTERY - SIMPLE ASSAULT,1300 0416,27,F,B,108,PARKING LOT,400,"STRONG-ARM (HANDS, FIST, FEET OR BODILY FORCE)",IC,Invest Cont,624,15500    DEVONSHIRE                   ST,34.261,-118.4698,01,2022,2022-01-08
07/13/2023 12:00:00 AM,07/13/2023 12:00:00 AM,1730,15,N Hollywood,2,647,THROWING OBJECT AT MOVING VEHICLE,1300 0447 1822 0416,43,F,W,101,STREET,500,UNKNOWN WEAPON/OTHER WEAPON,IC,Invest Cont,647,5200    LANKERSHIM                   BL,34.1649,-118.3746,07,2023,2023-07-13
04/17/2020 12:00:00 AM,04/17/2020 12:00:00 AM,1600,14,Pacific,2,901,VIOLATION OF RESTRAINING ORDER,1501,52,M,W,102,SIDEWALK,NA,,IC,Invest Cont,901,3700    WASATCH                      AV,34.0055,-118.4375,04,2020,2020-04-17
07/31/2023 12:00:00 AM,07/25/2023 12:00:00 AM,2230,14,Pacific,1,420,THEFT FROM MOTOR VEHICLE - PETTY ($950 & UNDER),0344,43,F,H,104,DRIVEWAY,NA,,IC,Invest Cont,420,1300    APPLETON                     WY,34.0038,-118.4553,07,2023,2023-07-25
08/19/2021 12:00:00 AM,08/19/2021 12:00:00 AM,1440,4,Hollenbeck,2,624,BATTERY - SIMPLE ASSAULT,1822 0400 0416,57,M,B,116,OTHER/OUTSIDE,400,"STRONG-ARM (HANDS, FIST, FEET OR BODILY FORCE)",IC,Invest Cont,624,MONTEREY                     RD,34.0881,-118.1877,08,2021,2021-08-19
09/22/2022 12:00:00 AM,09/14/2022 12:00:00 AM,2115,8,West LA,1,320,"BURGLARY, ATTEMPTED",1822 1609 0358,47,F,W,501,SINGLE FAMILY DWELLING,211,AXE,IC,Invest Cont,320,10300    NORTHVALE                    RD,34.0331,-118.411,09,2022,2022-09-14
10/09/2022 12:00:00 AM,10/05/2022 12:00:00 AM,915,17,Devonshire,1,310,BURGLARY,0321 1601,57,M,A,501,SINGLE FAMILY DWELLING,NA,,IC,Invest Cont,310,17200    TENNYSON                     PL,34.3038,-118.5089,10,2022,2022-10-05
08/15/2023 12:00:00 AM,08/15/2023 12:00:00 AM,2200,14,Pacific,1,330,BURGLARY FROM VEHICLE,1609 0344 1300,37,M,W,108,PARKING LOT,NA,,IC,Invest Cont,330,900    BROADWAY,33.9977,-118.4627,08,2023,2023-08-15
09/11/2021 12:00:00 AM,09/10/2021 12:00:00 AM,900,13,Newton,2,354,THEFT OF IDENTITY,0100,23,F,H,750,CYBERSPACE,NA,,IC,Invest Cont,354,5200    ALBA                         ST,33.9951,-118.2398,09,2021,2021-09-10
06/29/2023 12:00:00 AM,06/29/2023 12:00:00 AM,1715,7,Wilshire,1,210,ROBBERY,0346 0334 0448,49,M,O,101,STREET,106,UNKNOWN FIREARM,IC,Invest Cont,210,600 N  GARDNER                      ST,34.0818,-118.3532,06,2023,2023-06-29
05/16/2023 12:00:00 AM,05/16/2023 12:00:00 AM,1150,19,Mission,2,624,BATTERY - SIMPLE ASSAULT,1258 2024 1822 0416 0448 0342 1815,12,M,H,720,JUNIOR HIGH SCHOOL,301,BELT FLAILING INSTRUMENT/CHAIN,IC,Invest Cont,624,14600    TYLER                        ST,34.3123,-118.4509,05,2023,2023-05-16
09/12/2020 12:00:00 AM,09/11/2020 12:00:00 AM,1730,19,Mission,1,330,BURGLARY FROM VEHICLE,0344 1307,23,M,H,108,PARKING LOT,NA,,IC,Invest Cont,330,16600    NICKLAUS                     DR,34.3258,-118.4926,09,2020,2020-09-11
09/16/2022 12:00:00 AM,09/16/2022 12:00:00 AM,100,11,Northeast,1,230,"ASSAULT WITH DEADLY WEAPON, AGGRAVATED ASSAULT",0411 1822 2002,54,M,W,203,OTHER BUSINESS,207,OTHER KNIFE,IC,Invest Cont,230,4200    SANTA MONICA                 BL,34.0947,-118.2877,09,2022,2022-09-16
05/25/2022 12:00:00 AM,05/25/2022 12:00:00 AM,700,9,Van Nuys,2,740,"VANDALISM - FELONY ($400 & OVER, ALL CHURCH VANDALISMS)",0329 1822,38,M,H,122,"VEHICLE, PASSENGER/TRUCK",NA,,IC,Invest Cont,740,4200    ETHEL                        AV,34.1459,-118.4183,05,2022,2022-05-25
09/08/2023 12:00:00 AM,09/08/2023 12:00:00 AM,2010,10,West Valley,1,310,BURGLARY,0344 1822 0329 0358 0321,43,M,W,501,SINGLE FAMILY DWELLING,NA,,IC,Invest Cont,310,18300    KAREN                        DR,34.1528,-118.531,09,2023,2023-09-08
09/05/2021 12:00:00 AM,09/04/2021 12:00:00 AM,2000,13,Newton,1,210,ROBBERY,0416 1310 0344 0916,38,M,H,101,STREET,400,"STRONG-ARM (HANDS, FIST, FEET OR BODILY FORCE)",IC,Invest Cont,210,KING                         BL,34.0114,-118.2624,09,2021,2021-09-04
07/09/2020 12:00:00 AM,07/09/2020 12:00:00 AM,2030,1,Central,1,480,BIKE - STOLEN,0344 1822 0397 1602 1414 1420,39,F,W,102,SIDEWALK,NA,,IC,Invest Cont,480,700 S  FIGUEROA                     ST,34.0483,-118.2631,07,2020,2020-07-09
01/18/2022 12:00:00 AM,01/17/2022 12:00:00 AM,1545,12,77th Street,2,930,CRIMINAL THREATS - NO WEAPON DISPLAYED,1309 1822 0421 0432,54,M,B,104,DRIVEWAY,511,VERBAL THREAT,IC,Invest Cont,930,6000    BRYNHURST                    AV,33.9854,-118.3338,01,2022,2022-01-17
05/24/2022 12:00:00 AM,05/07/2022 12:00:00 AM,734,21,Topanga,1,440,THEFT PLAIN - PETTY ($950 & UNDER),0344,28,M,W,501,SINGLE FAMILY DWELLING,NA,,IC,Invest Cont,440,20800    MARTHA                       ST,34.1727,-118.5859,05,2022,2022-05-07
09/27/2022 12:00:00 AM,09/16/2022 12:00:00 AM,1540,7,Wilshire,2,354,THEFT OF IDENTITY,0929 0928 0100,67,F,W,501,SINGLE FAMILY DWELLING,NA,,IC,Invest Cont,354,200 S  POINSETTIA                   PL,34.073,-118.3509,09,2022,2022-09-16
06/08/2023 12:00:00 AM,05/30/2023 12:00:00 AM,1730,17,Devonshire,2,740,"VANDALISM - FELONY ($400 & OVER, ALL CHURCH VANDALISMS)",0329,20,F,H,122,"VEHICLE, PASSENGER/TRUCK",NA,,IC,Invest Cont,740,SHIRLEY,34.2355,-118.558,05,2023,2023-05-30
11/27/2022 12:00:00 AM,08/17/2022 12:00:00 AM,800,10,West Valley,2,354,THEFT OF IDENTITY,1822 1501,60,M,W,501,SINGLE FAMILY DWELLING,NA,,IC,Invest Cont,354,16500    ADLON                        RD,34.1532,-118.4983,08,2022,2022-08-17
02/15/2023 12:00:00 AM,02/15/2023 12:00:00 AM,2300,10,West Valley,1,230,"ASSAULT WITH DEADLY WEAPON, AGGRAVATED ASSAULT",1817 0443 0445 0913 0334 0302 1402,19,M,H,502,"MULTI-UNIT DWELLING (APARTMENT, DUPLEX, ETC)",114,AIR PISTOL/REVOLVER/RIFLE/BB GUN,AO,Adult Other,230,18600    HATTERAS                     ST,34.1774,-118.5387,02,2023,2023-02-15
01/14/2021 12:00:00 AM,01/14/2021 12:00:00 AM,425,17,Devonshire,1,230,"ASSAULT WITH DEADLY WEAPON, AGGRAVATED ASSAULT",0430 1822 1309 1218 1100 1402 1407,45,M,H,101,STREET,106,UNKNOWN FIREARM,IC,Invest Cont,230,HASKELL                      AV,34.2655,-118.4761,01,2021,2021-01-14
05/02/2020 12:00:00 AM,04/19/2020 12:00:00 AM,1200,17,Devonshire,2,745,VANDALISM - MISDEAMEANOR ($399 OR UNDER),1602 0329,56,M,F,501,SINGLE FAMILY DWELLING,NA,,IC,Invest Cont,745,10600    DANUBE                       AV,34.263,-118.4746,04,2020,2020-04-19
10/10/2022 12:00:00 AM,10/09/2022 12:00:00 AM,800,3,Southwest,1,341,"THEFT-GRAND ($950.01 & OVER)EXCPT,GUNS,FOWL,LIVESTK,PROD",0344 1822 2034 0352,34,M,W,124,BUS STOP,NA,,IC,Invest Cont,341,W  JEFFERSON,34.0251,-118.2871,10,2022,2022-10-09
10/09/2023 12:00:00 AM,10/08/2023 12:00:00 AM,1545,19,Mission,2,626,INTIMATE PARTNER - SIMPLE ASSAULT,2000 0913 1814 0416,67,M,H,102,SIDEWALK,400,"STRONG-ARM (HANDS, FIST, FEET OR BODILY FORCE)",AO,Adult Other,626,FENTON                       AV,34.3172,-118.4302,10,2023,2023-10-08
06/10/2022 12:00:00 AM,05/11/2022 12:00:00 AM,1700,8,West LA,1,820,ORAL COPULATION,0552 0500 1257 0913,5,F,W,501,SINGLE FAMILY DWELLING,400,"STRONG-ARM (HANDS, FIST, FEET OR BODILY FORCE)",AO,Adult Other,812,16400    SLOAN                        DR,34.1294,-118.4903,05,2022,2022-05-11
09/13/2021 12:00:00 AM,09/13/2021 12:00:00 AM,2010,12,77th Street,1,230,"ASSAULT WITH DEADLY WEAPON, AGGRAVATED ASSAULT",0400 0416 1822,16,M,H,101,STREET,114,AIR PISTOL/REVOLVER/RIFLE/BB GUN,IC,Invest Cont,230,300 W  75TH                         ST,33.9718,-118.2783,09,2021,2021-09-13
07/15/2021 12:00:00 AM,07/15/2021 12:00:00 AM,1100,20,Olympic,1,350,"THEFT, PERSON",0345 0346 0305 1822,20,F,O,102,SIDEWALK,400,"STRONG-ARM (HANDS, FIST, FEET OR BODILY FORCE)",IC,Invest Cont,350,6TH                          ST,34.0636,-118.2916,07,2021,2021-07-15
05/15/2022 12:00:00 AM,05/13/2022 12:00:00 AM,830,11,Northeast,1,220,ATTEMPTED ROBBERY,1822 0334 0355,64,M,H,102,SIDEWALK,207,OTHER KNIFE,IC,Invest Cont,220,2100    HILL                         DR,34.1425,-118.2117,05,2022,2022-05-13
08/22/2020 12:00:00 AM,08/22/2020 12:00:00 AM,1825,6,Hollywood,1,761,BRANDISH WEAPON,1822 0334,36,M,O,101,STREET,102,HAND GUN,IC,Invest Cont,761,2000 N  SYCAMORE                     AV,34.1066,-118.3424,08,2020,2020-08-22
06/11/2021 12:00:00 AM,06/10/2021 12:00:00 AM,1548,1,Central,2,930,CRIMINAL THREATS - NO WEAPON DISPLAYED,0421 1822,99,F,H,710,OTHER PREMISE,511,VERBAL THREAT,AO,Adult Other,930,600 S  OLIVE                        ST,34.0476,-118.2546,06,2021,2021-06-10
01/21/2022 12:00:00 AM,01/21/2022 12:00:00 AM,930,18,Southeast,1,310,BURGLARY,0913 0344 1607,44,F,B,502,"MULTI-UNIT DWELLING (APARTMENT, DUPLEX, ETC)",NA,,IC,Invest Cont,310,1800 E  97TH                         ST,33.9482,-118.2408,01,2022,2022-01-21
10/11/2022 12:00:00 AM,10/08/2022 12:00:00 AM,53,17,Devonshire,2,354,THEFT OF IDENTITY,0922 1822,33,F,H,502,"MULTI-UNIT DWELLING (APARTMENT, DUPLEX, ETC)",NA,,IC,Invest Cont,354,8700    DE SOTO                      AV,34.2286,-118.5885,10,2022,2022-10-08
05/28/2021 12:00:00 AM,05/18/2021 12:00:00 AM,1200,10,West Valley,2,354,THEFT OF IDENTITY,1822 0930,68,F,W,501,SINGLE FAMILY DWELLING,NA,,IC,Invest Cont,354,7200    BECKFORD                     AV,34.2012,-118.5513,05,2021,2021-05-18
09/10/2022 12:00:00 AM,09/10/2022 12:00:00 AM,1340,1,Central,1,341,"THEFT-GRAND ($950.01 & OVER)EXCPT,GUNS,FOWL,LIVESTK,PROD",0344 1822,63,F,A,108,PARKING LOT,NA,,IC,Invest Cont,341,700    YALE                         ST,34.0612,-118.2417,09,2022,2022-09-10
10/22/2021 12:00:00 AM,10/22/2021 12:00:00 AM,1800,10,West Valley,2,930,CRIMINAL THREATS - NO WEAPON DISPLAYED,2038 0913 1601 0421 2000 1814 0329 0358 0422,22,F,B,502,"MULTI-UNIT DWELLING (APARTMENT, DUPLEX, ETC)",511,VERBAL THREAT,AO,Adult Other,930,7000    WOODLEY                      AV,34.1975,-118.4837,10,2021,2021-10-22
02/17/2023 12:00:00 AM,02/17/2023 12:00:00 AM,1615,17,Devonshire,1,330,BURGLARY FROM VEHICLE,0344 1609,35,M,W,108,PARKING LOT,NA,,IC,Invest Cont,330,11800    BALBOA                       BL,34.2841,-118.5021,02,2023,2023-02-17
01/25/2022 12:00:00 AM,01/25/2022 12:00:00 AM,2000,17,Devonshire,1,331,THEFT FROM MOTOR VEHICLE - GRAND ($950.01 AND OVER),0385,46,M,A,116,OTHER/OUTSIDE,NA,,IC,Invest Cont,331,ETIWANDA                     AV,34.2787,-118.5342,01,2022,2022-01-25
03/08/2021 12:00:00 AM,02/14/2021 12:00:00 AM,2240,5,Harbor,2,860,BATTERY WITH SEXUAL CONTACT,0913 1817 1300 0448 0522 0505,25,F,H,101,STREET,400,"STRONG-ARM (HANDS, FIST, FEET OR BODILY FORCE)",IC,Invest Cont,860,D,33.7736,-118.2724,02,2021,2021-02-14
06/11/2020 12:00:00 AM,06/08/2020 12:00:00 AM,900,19,Mission,2,900,VIOLATION OF COURT ORDER,2038,25,M,O,502,"MULTI-UNIT DWELLING (APARTMENT, DUPLEX, ETC)",NA,,AO,Adult Other,900,10000 N  SEPULVEDA                    BL,34.2519,-118.4674,06,2020,2020-06-08
08/17/2022 12:00:00 AM,08/12/2022 12:00:00 AM,1140,9,Van Nuys,1,331,THEFT FROM MOTOR VEHICLE - GRAND ($950.01 AND OVER),1822 0344,60,M,H,101,STREET,NA,,IC,Invest Cont,331,15000    OXNARD                       ST,34.1794,-118.4596,08,2022,2022-08-12
11/25/2022 12:00:00 AM,11/25/2022 12:00:00 AM,835,5,Harbor,2,624,BATTERY - SIMPLE ASSAULT,0416 0429 1309 0913,25,F,B,502,"MULTI-UNIT DWELLING (APARTMENT, DUPLEX, ETC)",400,"STRONG-ARM (HANDS, FIST, FEET OR BODILY FORCE)",AO,Adult Other,624,500 W  13TH                         ST,33.7324,-118.2879,11,2022,2022-11-25
04/17/2021 12:00:00 AM,04/13/2021 12:00:00 AM,1800,8,West LA,1,330,BURGLARY FROM VEHICLE,0344 0358,55,M,W,104,DRIVEWAY,NA,,IC,Invest Cont,330,9400    CHEROKEE                     LN,34.1114,-118.4056,04,2021,2021-04-13
09/10/2021 12:00:00 AM,09/08/2021 12:00:00 AM,1630,11,Northeast,2,745,VANDALISM - MISDEAMEANOR ($399 OR UNDER),0329,39,F,F,119,"PORCH, RESIDENTIAL",NA,,IC,Invest Cont,745,2300    FARGO                        ST,34.0929,-118.2609,09,2021,2021-09-08
02/02/2022 12:00:00 AM,02/02/2022 12:00:00 AM,1150,12,77th Street,2,354,THEFT OF IDENTITY,0100 1822,22,F,H,501,SINGLE FAMILY DWELLING,NA,,IC,Invest Cont,354,900 W  65TH                         ST,33.9801,-118.2893,02,2022,2022-02-02
10/22/2020 12:00:00 AM,10/22/2020 12:00:00 AM,2200,4,Hollenbeck,2,624,BATTERY - SIMPLE ASSAULT,1218 0400 0417 1822,21,M,W,109,PARK/PLAYGROUND,400,"STRONG-ARM (HANDS, FIST, FEET OR BODILY FORCE)",IC,Invest Cont,624,SOTO                         ST,34.0592,-118.2,10,2020,2020-10-22
05/01/2023 12:00:00 AM,05/01/2023 12:00:00 AM,1230,2,Rampart,2,626,INTIMATE PARTNER - SIMPLE ASSAULT,2000 0913 1813 1243 0416,20,F,H,101,STREET,400,"STRONG-ARM (HANDS, FIST, FEET OR BODILY FORCE)",AA,Adult Arrest,626,1600    WILSHIRE                     BL,34.0554,-118.2702,05,2023,2023-05-01
03/05/2023 12:00:00 AM,03/04/2023 12:00:00 AM,1800,20,Olympic,1,331,THEFT FROM MOTOR VEHICLE - GRAND ($950.01 AND OVER),1202 0385 1602,70,M,A,108,PARKING LOT,NA,,IC,Invest Cont,331,2000 S  HOBART                       BL,34.0392,-118.3062,03,2023,2023-03-04
09/24/2020 12:00:00 AM,09/24/2020 12:00:00 AM,1730,12,77th Street,2,626,INTIMATE PARTNER - SIMPLE ASSAULT,2000 1813 0913 1309 2002 0448 0432,44,F,H,501,SINGLE FAMILY DWELLING,400,"STRONG-ARM (HANDS, FIST, FEET OR BODILY FORCE)",AO,Adult Other,626,1100 W  62ND                         ST,33.9863,-118.2881,09,2020,2020-09-24
09/20/2022 12:00:00 AM,09/19/2022 12:00:00 AM,1335,20,Olympic,1,331,THEFT FROM MOTOR VEHICLE - GRAND ($950.01 AND OVER),1822 0344 0385,56,F,H,101,STREET,NA,,IC,Invest Cont,331,3600 W  3RD                          ST,34.0709,-118.2941,09,2022,2022-09-19
01/03/2023 12:00:00 AM,12/30/2022 12:00:00 AM,1015,20,Olympic,1,440,THEFT PLAIN - PETTY ($950 & UNDER),0344 0394 1822 2032,19,F,H,502,"MULTI-UNIT DWELLING (APARTMENT, DUPLEX, ETC)",NA,,IC,Invest Cont,440,4000    COUNTRY CLUB                 DR,34.0543,-118.3193,12,2022,2022-12-30
10/17/2023 12:00:00 AM,10/17/2023 12:00:00 AM,1238,3,Southwest,1,230,"ASSAULT WITH DEADLY WEAPON, AGGRAVATED ASSAULT",2004 1822 0431,42,M,H,102,SIDEWALK,503,CAUSTIC CHEMICAL/POISON,AA,Adult Arrest,230,41ST,34.0082,-118.3002,10,2023,2023-10-17
10/07/2022 12:00:00 AM,10/05/2022 12:00:00 AM,1900,13,Newton,1,330,BURGLARY FROM VEHICLE,0344 1601 1609 1307 0329 0352,26,M,O,101,STREET,NA,,IC,Invest Cont,330,MATEO                        ST,34.0336,-118.2323,10,2022,2022-10-05
08/05/2023 12:00:00 AM,08/05/2023 12:00:00 AM,820,18,Southeast,1,330,BURGLARY FROM VEHICLE,0344 1822 1307 0329 1609,24,F,B,502,"MULTI-UNIT DWELLING (APARTMENT, DUPLEX, ETC)",NA,,IC,Invest Cont,330,10900 S  FIGUEROA                     ST,33.9367,-118.2871,08,2023,2023-08-05
10/11/2020 12:00:00 AM,10/11/2020 12:00:00 AM,600,5,Harbor,1,230,"ASSAULT WITH DEADLY WEAPON, AGGRAVATED ASSAULT",1822 0446 1202 0429 0416,65,M,H,710,OTHER PREMISE,400,"STRONG-ARM (HANDS, FIST, FEET OR BODILY FORCE)",IC,Invest Cont,230,1500 E  ANAHEIM                      ST,33.781,-118.2437,10,2020,2020-10-11
05/12/2020 12:00:00 AM,01/03/2020 12:00:00 AM,2300,15,N Hollywood,1,121,"RAPE, FORCIBLE",0500 1402 0913 1814 2000 1258 0400 0527,13,F,W,502,"MULTI-UNIT DWELLING (APARTMENT, DUPLEX, ETC)",400,"STRONG-ARM (HANDS, FIST, FEET OR BODILY FORCE)",AA,Adult Arrest,121,12600    MOORPARK                     ST,34.1533,-118.4058,01,2020,2020-01-03
11/22/2022 12:00:00 AM,11/17/2022 12:00:00 AM,1300,1,Central,1,442,SHOPLIFTING - PETTY THEFT ($950 & UNDER),1822 0325 0344 2028,54,M,W,404,DEPARTMENT STORE,NA,,IC,Invest Cont,442,700    WALL                         ST,34.042,-118.2485,11,2022,2022-11-17
08/30/2021 12:00:00 AM,08/30/2021 12:00:00 AM,1530,19,Mission,2,902,VIOLATION OF TEMPORARY RESTRAINING ORDER,2038 2004,51,F,H,501,SINGLE FAMILY DWELLING,NA,,IC,Invest Cont,902,14000    DAUBERT                      ST,34.2737,-118.4388,08,2021,2021-08-30
08/18/2022 12:00:00 AM,05/21/2022 12:00:00 AM,1900,14,Pacific,1,440,THEFT PLAIN - PETTY ($950 & UNDER),1822 0344,53,F,O,212,TRANSPORTATION FACILITY (AIRPORT),NA,,IC,Invest Cont,440,600    WORLD                        WY,33.9429,-118.403,05,2022,2022-05-21
08/21/2022 12:00:00 AM,08/20/2022 12:00:00 AM,700,11,Northeast,2,626,INTIMATE PARTNER - SIMPLE ASSAULT,2000 0913 0448 0400 1814,38,F,H,501,SINGLE FAMILY DWELLING,400,"STRONG-ARM (HANDS, FIST, FEET OR BODILY FORCE)",AO,Adult Other,626,4200    DEL MAR                      AV,34.0914,-118.2831,08,2022,2022-08-20
08/15/2023 12:00:00 AM,08/15/2023 12:00:00 AM,1535,9,Van Nuys,1,442,SHOPLIFTING - PETTY THEFT ($950 & UNDER),0344 0352 1414 1420 2004,53,M,H,404,DEPARTMENT STORE,NA,,AA,Adult Arrest,442,14900    RAYMER                       ST,34.2131,-118.4584,08,2023,2023-08-15
01/13/2023 12:00:00 AM,01/11/2023 12:00:00 AM,2130,7,Wilshire,1,330,BURGLARY FROM VEHICLE,0344 0358 1822 1309 1607,43,F,H,101,STREET,NA,,IC,Invest Cont,330,700 S  COCHRAN                      AV,34.0623,-118.3472,01,2023,2023-01-11
08/05/2022 12:00:00 AM,08/05/2022 12:00:00 AM,1023,17,Devonshire,1,331,THEFT FROM MOTOR VEHICLE - GRAND ($950.01 AND OVER),0344 0385,35,M,H,717,HEALTH SPA/GYM,NA,,IC,Invest Cont,331,SHIRLEY,34.2355,-118.558,08,2022,2022-08-05
01/13/2023 12:00:00 AM,01/13/2023 12:00:00 AM,1620,7,Wilshire,2,624,BATTERY - SIMPLE ASSAULT,0913 0416,46,F,H,203,OTHER BUSINESS,400,"STRONG-ARM (HANDS, FIST, FEET OR BODILY FORCE)",AO,Adult Other,624,500 N  LA BREA                      AV,34.0846,-118.3464,01,2023,2023-01-13
06/25/2020 12:00:00 AM,06/25/2020 12:00:00 AM,1525,10,West Valley,2,886,DISTURBING THE PEACE,0913 0443,29,F,H,203,OTHER BUSINESS,NA,,AO,Adult Other,886,7100    RESEDA                       BL,34.1993,-118.536,06,2020,2020-06-25
12/21/2020 12:00:00 AM,12/21/2020 12:00:00 AM,1800,5,Harbor,2,624,BATTERY - SIMPLE ASSAULT,1803 0444 0913,52,M,W,517,MISSIONS/SHELTERS,400,"STRONG-ARM (HANDS, FIST, FEET OR BODILY FORCE)",AO,Adult Other,624,800    EUBANK                       AV,33.7804,-118.255,12,2020,2020-12-21
01/06/2023 12:00:00 AM,01/05/2023 12:00:00 AM,1321,15,N Hollywood,2,354,THEFT OF IDENTITY,0930 1822,33,F,H,502,"MULTI-UNIT DWELLING (APARTMENT, DUPLEX, ETC)",NA,,IC,Invest Cont,354,7400    DENNY                        AV,34.2048,-118.3649,01,2023,2023-01-05
11/22/2021 12:00:00 AM,11/22/2021 12:00:00 AM,1000,9,Van Nuys,2,740,"VANDALISM - FELONY ($400 & OVER, ALL CHURCH VANDALISMS)",0329,65,M,B,502,"MULTI-UNIT DWELLING (APARTMENT, DUPLEX, ETC)",NA,,AO,Adult Other,740,15100    SHERMAN                      WY,34.2013,-118.4659,11,2021,2021-11-22
06/02/2023 12:00:00 AM,06/01/2023 12:00:00 AM,2100,1,Central,1,330,BURGLARY FROM VEHICLE,1307 0344,26,M,W,101,STREET,NA,,IC,Invest Cont,330,1300    WILLOW                       ST,34.0392,-118.2328,06,2023,2023-06-01
01/27/2021 12:00:00 AM,01/27/2021 12:00:00 AM,2230,1,Central,2,624,BATTERY - SIMPLE ASSAULT,0913 1206 0416 0361,49,F,B,516,SINGLE RESIDENCE OCCUPANCY (SRO'S) LOCATIONS,500,UNKNOWN WEAPON/OTHER WEAPON,AO,Adult Other,624,400 S  SAN PEDRO                    ST,34.0455,-118.2432,01,2021,2021-01-27
01/30/2020 12:00:00 AM,01/30/2020 12:00:00 AM,1548,21,Topanga,1,442,SHOPLIFTING - PETTY THEFT ($950 & UNDER),0325,33,M,X,404,DEPARTMENT STORE,NA,,AA,Adult Arrest,442,6500    TOPANGA CANYON               BL,34.1886,-118.6059,01,2020,2020-01-30
03/01/2020 12:00:00 AM,03/01/2020 12:00:00 AM,300,2,Rampart,1,210,ROBBERY,1822 0906 0342 0432 0344 0352 0370 0312 0369 0302,31,M,H,102,SIDEWALK,102,HAND GUN,IC,Invest Cont,210,8TH                          ST,34.0523,-118.2722,03,2020,2020-03-01
03/27/2021 12:00:00 AM,03/26/2021 12:00:00 AM,1420,11,Northeast,1,310,BURGLARY,0344 1609,51,F,W,501,SINGLE FAMILY DWELLING,NA,,IC,Invest Cont,310,5400    LOS FELIZ                    BL,34.1081,-118.3079,03,2021,2021-03-26
03/22/2021 12:00:00 AM,03/22/2021 12:00:00 AM,1300,12,77th Street,1,420,THEFT FROM MOTOR VEHICLE - PETTY ($950 & UNDER),0344,21,M,H,101,STREET,NA,,IC,Invest Cont,420,7800    MCKINLEY                     AV,33.9679,-118.2608,03,2021,2021-03-22
07/25/2023 12:00:00 AM,07/25/2023 12:00:00 AM,345,8,West LA,1,230,"ASSAULT WITH DEADLY WEAPON, AGGRAVATED ASSAULT",0910 0444 2004 1822 0400 0416,21,F,W,953,MTA - EXPO LINE - EXPO/SEPULVEDA,400,"STRONG-ARM (HANDS, FIST, FEET OR BODILY FORCE)",AA,Adult Arrest,230,SEPULVEDA                    BL,34.0348,-118.4339,07,2023,2023-07-25
05/05/2020 12:00:00 AM,05/05/2020 12:00:00 AM,1215,7,Wilshire,1,440,THEFT PLAIN - PETTY ($950 & UNDER),1822 0601 0344 0325,46,M,H,203,OTHER BUSINESS,NA,,IC,Invest Cont,440,4500 W  PICO                         BL,34.0485,-118.3335,05,2020,2020-05-05
07/26/2021 12:00:00 AM,07/25/2021 12:00:00 AM,1900,14,Pacific,1,331,THEFT FROM MOTOR VEHICLE - GRAND ($950.01 AND OVER),0344 0385 1300,34,F,O,203,OTHER BUSINESS,NA,,IC,Invest Cont,331,700    PALMS                        BL,33.9921,-118.4625,07,2021,2021-07-25
08/05/2020 12:00:00 AM,08/05/2020 12:00:00 AM,1033,2,Rampart,1,220,ATTEMPTED ROBBERY,1402 0334 0431 0913 0603,40,M,H,502,"MULTI-UNIT DWELLING (APARTMENT, DUPLEX, ETC)",200,KNIFE WITH BLADE 6INCHES OR LESS,AA,Adult Arrest,220,600 S  CORONADO                     ST,34.061,-118.2811,08,2020,2020-08-05
12/19/2021 12:00:00 AM,12/19/2021 12:00:00 AM,1206,1,Central,2,740,"VANDALISM - FELONY ($400 & OVER, ALL CHURCH VANDALISMS)",0329,25,F,B,517,MISSIONS/SHELTERS,NA,,AA,Adult Arrest,740,300 N  MAIN                         ST,34.0542,-118.2415,12,2021,2021-12-19
07/14/2023 12:00:00 AM,07/13/2023 12:00:00 AM,2200,13,Newton,1,330,BURGLARY FROM VEHICLE,1307 0344,34,M,O,116,OTHER/OUTSIDE,NA,,IC,Invest Cont,330,STAUNTON                     AV,34.0184,-118.2415,07,2023,2023-07-13
07/24/2023 12:00:00 AM,07/24/2023 12:00:00 AM,100,14,Pacific,1,330,BURGLARY FROM VEHICLE,1609 0344,20,M,W,101,STREET,NA,,IC,Invest Cont,330,6700 W  86TH                         PL,33.9592,-118.4068,07,2023,2023-07-24
07/11/2023 12:00:00 AM,07/10/2023 12:00:00 AM,1000,20,Olympic,1,440,THEFT PLAIN - PETTY ($950 & UNDER),1822 0344 2032,23,M,F,108,PARKING LOT,NA,,IC,Invest Cont,440,400 S  MARIPOSA                     AV,34.0672,-118.2992,07,2023,2023-07-10
12/19/2022 12:00:00 AM,12/19/2022 12:00:00 AM,1605,18,Southeast,2,624,BATTERY - SIMPLE ASSAULT,1822 0416 0448 0401 0432,36,F,H,203,OTHER BUSINESS,400,"STRONG-ARM (HANDS, FIST, FEET OR BODILY FORCE)",IC,Invest Cont,624,8800 S  BROADWAY,33.9572,-118.2782,12,2022,2022-12-19
03/29/2022 12:00:00 AM,03/29/2022 12:00:00 AM,1218,3,Southwest,2,662,"BUNCO, GRAND THEFT",1900 0344 1822,29,F,B,501,SINGLE FAMILY DWELLING,NA,,AO,Adult Other,662,2800 S  FIGUEROA                     ST,34.0262,-118.2773,03,2022,2022-03-29
02/03/2022 12:00:00 AM,02/03/2022 12:00:00 AM,1,18,Southeast,2,354,THEFT OF IDENTITY,0922 1822,28,F,H,501,SINGLE FAMILY DWELLING,NA,,IC,Invest Cont,354,11500    MONA                         BL,33.9305,-118.2307,02,2022,2022-02-03
05/15/2021 12:00:00 AM,05/15/2021 12:00:00 AM,2200,1,Central,2,888,TRESPASSING,2004,26,M,B,502,"MULTI-UNIT DWELLING (APARTMENT, DUPLEX, ETC)",NA,,IC,Invest Cont,888,1200 S  HILL                         ST,34.0377,-118.26220000000001,05,2021,2021-05-15
02/10/2023 12:00:00 AM,12/30/2022 12:00:00 AM,1555,4,Hollenbeck,2,946,OTHER MISCELLANEOUS CRIME,0112 1309 0443,29,F,H,101,STREET,511,VERBAL THREAT,AO,Adult Other,946,600    CAMULOS                      ST,34.035,-118.2082,12,2022,2022-12-30
12/31/2020 12:00:00 AM,12/31/2020 12:00:00 AM,1220,19,Mission,2,624,BATTERY - SIMPLE ASSAULT,0416,26,M,H,502,"MULTI-UNIT DWELLING (APARTMENT, DUPLEX, ETC)",400,"STRONG-ARM (HANDS, FIST, FEET OR BODILY FORCE)",IC,Invest Cont,624,9000    CEDROS                       AV,34.2336,-118.4535,12,2020,2020-12-31
02/25/2020 12:00:00 AM,02/25/2020 12:00:00 AM,915,4,Hollenbeck,2,624,BATTERY - SIMPLE ASSAULT,0400 0416 0913 0561 1402,48,F,H,101,STREET,400,"STRONG-ARM (HANDS, FIST, FEET OR BODILY FORCE)",JA,Juv Arrest,624,2100    MARENGO                      ST,34.056,-118.206,02,2020,2020-02-25
01/23/2021 12:00:00 AM,12/31/2020 12:00:00 AM,1700,17,Devonshire,1,310,BURGLARY,1605 0344 0321,50,M,W,221,PUBLIC STORAGE,NA,,IC,Invest Cont,310,20200    PRAIRIE                      ST,34.2392,-118.5732,12,2020,2020-12-31
11/04/2020 12:00:00 AM,11/04/2020 12:00:00 AM,2309,1,Central,1,210,ROBBERY,0344 0337 1822 0325 0443,30,M,H,402,MARKET,102,HAND GUN,IC,Invest Cont,210,200    BOYD                         ST,34.0476,-118.2449,11,2020,2020-11-04
10/22/2023 12:00:00 AM,10/22/2023 12:00:00 AM,700,14,Pacific,1,761,BRANDISH WEAPON,0918 0443 0334 1822 1236 2004,42,M,O,503,HOTEL,215,MACHETE,AA,Adult Arrest,761,5900 W  CENTURY                      BL,33.9456,-118.3932,10,2023,2023-10-22
06/18/2020 12:00:00 AM,06/18/2020 12:00:00 AM,1500,18,Southeast,1,230,"ASSAULT WITH DEADLY WEAPON, AGGRAVATED ASSAULT",1822 1100 1402 1407 0430 1300 1310 1270 0906,48,M,B,101,STREET,102,HAND GUN,IC,Invest Cont,230,98TH                         ST,33.9475,-118.263,06,2020,2020-06-18
04/20/2022 12:00:00 AM,04/20/2022 12:00:00 AM,1100,1,Central,2,888,TRESPASSING,2004 1501 1822,32,M,H,503,HOTEL,NA,,IC,Invest Cont,888,400 S  FIGUEROA                     ST,34.0535,-118.256,04,2022,2022-04-20
06/28/2022 12:00:00 AM,06/26/2022 12:00:00 AM,30,6,Hollywood,1,341,"THEFT-GRAND ($950.01 & OVER)EXCPT,GUNS,FOWL,LIVESTK,PROD",1822 0344 1205,20,F,W,203,OTHER BUSINESS,NA,,IC,Invest Cont,341,1400    DEVLIN                       DR,34.0952,-118.3863,06,2022,2022-06-26
04/30/2021 12:00:00 AM,04/02/2021 12:00:00 AM,1200,19,Mission,2,354,THEFT OF IDENTITY,0100 0922 1822,26,M,H,605,AUTOMATED TELLER MACHINE (ATM),NA,,IC,Invest Cont,354,14400    FOOTHILL                     BL,34.3238,-118.4387,04,2021,2021-04-02
01/29/2020 12:00:00 AM,01/10/2020 12:00:00 AM,1720,13,Newton,1,110,CRIMINAL HOMICIDE,0906 1822 0416,76,M,H,203,OTHER BUSINESS,400,"STRONG-ARM (HANDS, FIST, FEET OR BODILY FORCE)",AA,Adult Arrest,110,4800 S  CENTRAL                      AV,33.9983,-118.2608,01,2020,2020-01-10
04/07/2021 12:00:00 AM,04/07/2021 12:00:00 AM,2050,16,Foothill,2,888,TRESPASSING,1501,33,M,H,501,SINGLE FAMILY DWELLING,NA,,IC,Invest Cont,888,9000    CRANFORD                     AV,34.2341,-118.4098,04,2021,2021-04-07
08/31/2021 12:00:00 AM,07/10/2021 12:00:00 AM,800,19,Mission,2,662,"BUNCO, GRAND THEFT",0701 1202,74,M,W,501,SINGLE FAMILY DWELLING,NA,,IC,Invest Cont,662,13300    ALMETZ                       ST,34.3272,-118.4222,07,2021,2021-07-10
03/07/2022 12:00:00 AM,02/03/2022 12:00:00 AM,720,7,Wilshire,2,664,"BUNCO, PETTY THEFT",0800 0701,25,F,W,751,WEBSITE,NA,,IC,Invest Cont,664,5600    WILSHIRE                     BL,34.0624,-118.351,02,2022,2022-02-03
01/27/2022 12:00:00 AM,01/27/2022 12:00:00 AM,930,13,Newton,1,330,BURGLARY FROM VEHICLE,0344 1307 1609,42,M,W,101,STREET,NA,,IC,Invest Cont,330,2000 S  OLIVE                        ST,34.0311,-118.2684,01,2022,2022-01-27
12/24/2021 12:00:00 AM,03/12/2021 12:00:00 AM,2310,2,Rampart,2,354,THEFT OF IDENTITY,0100 0930 0929 0922,35,F,B,502,"MULTI-UNIT DWELLING (APARTMENT, DUPLEX, ETC)",NA,,IC,Invest Cont,354,200    LUCAS                        AV,34.0605,-118.2602,03,2021,2021-03-12
06/16/2020 12:00:00 AM,05/28/2020 12:00:00 AM,1800,1,Central,1,310,BURGLARY,0344 1609 1822 2046 1414 0352 0325 0329,58,M,O,201,JEWELRY STORE,NA,,IC,Invest Cont,310,600 S  BROADWAY,34.0467,-118.252,05,2020,2020-05-28
03/31/2022 12:00:00 AM,03/10/2022 12:00:00 AM,1640,9,Van Nuys,2,956,"LETTERS, LEWD  -  TELEPHONE CALLS, LEWD",1906,28,M,W,502,"MULTI-UNIT DWELLING (APARTMENT, DUPLEX, ETC)",NA,,IC,Invest Cont,956,4500    WILLIS                       AV,34.152,-118.4553,03,2022,2022-03-10
05/25/2020 12:00:00 AM,05/24/2020 12:00:00 AM,1500,16,Foothill,1,343,SHOPLIFTING-GRAND THEFT ($950.01 & OVER),0344 0325 2004 1402 1822,28,M,W,243,"DIY CENTER (LOWE'S,HOME DEPOT,OSH,CONTRACTORS WAREHOUSE)",NA,,AA,Adult Arrest,343,13500    PAXTON                       ST,34.2734,-118.4265,05,2020,2020-05-24
10/11/2022 12:00:00 AM,10/08/2022 12:00:00 AM,15,16,Foothill,2,740,"VANDALISM - FELONY ($400 & OVER, ALL CHURCH VANDALISMS)",0329 1814,38,F,H,122,"VEHICLE, PASSENGER/TRUCK",NA,,AO,Adult Other,740,10400    CAYUGA                       AV,34.2593,-118.4225,10,2022,2022-10-08
04/17/2021 12:00:00 AM,04/12/2021 12:00:00 AM,1300,18,Southeast,2,922,CHILD STEALING,0913 1814 1501 0602 2038,36,F,H,501,SINGLE FAMILY DWELLING,NA,,AO,Adult Other,922,400 E  118TH                        ST,33.9265,-118.2657,04,2021,2021-04-12
01/29/2020 12:00:00 AM,01/29/2020 12:00:00 AM,1200,8,West LA,1,310,BURGLARY,0321 0344 1822,49,M,W,502,"MULTI-UNIT DWELLING (APARTMENT, DUPLEX, ETC)",NA,,IC,Invest Cont,310,1800    FAIRBURN                     AV,34.0548,-118.4275,01,2020,2020-01-29
07/07/2020 12:00:00 AM,07/07/2020 12:00:00 AM,230,1,Central,2,624,BATTERY - SIMPLE ASSAULT,0444 1822,59,F,H,101,STREET,400,"STRONG-ARM (HANDS, FIST, FEET OR BODILY FORCE)",IC,Invest Cont,624,500 S  SPRING                       ST,34.0467,-118.252,07,2020,2020-07-07
06/28/2023 12:00:00 AM,06/28/2023 12:00:00 AM,25,6,Hollywood,1,330,BURGLARY FROM VEHICLE,1822 1300 1307 1601 1609 0329 0344 0352,29,M,B,101,STREET,NA,,IC,Invest Cont,330,7200 W  SUNSET                       BL,34.1007,-118.3494,06,2023,2023-06-28
05/06/2023 12:00:00 AM,05/06/2023 12:00:00 AM,1245,3,Southwest,2,624,BATTERY - SIMPLE ASSAULT,0603 0361 0416 0446,32,F,H,104,DRIVEWAY,400,"STRONG-ARM (HANDS, FIST, FEET OR BODILY FORCE)",IC,Invest Cont,624,1800 W  24TH                         ST,34.0346,-118.3033,05,2023,2023-05-06
08/28/2023 12:00:00 AM,08/21/2023 12:00:00 AM,2332,21,Topanga,1,331,THEFT FROM MOTOR VEHICLE - GRAND ($950.01 AND OVER),0385,53,M,H,101,STREET,NA,,IC,Invest Cont,331,6600    WOODLAKE                     AV,34.1899,-118.6315,08,2023,2023-08-21
12/03/2021 12:00:00 AM,11/07/2021 12:00:00 AM,1740,19,Mission,2,624,BATTERY - SIMPLE ASSAULT,1810 0416,22,F,B,502,"MULTI-UNIT DWELLING (APARTMENT, DUPLEX, ETC)",400,"STRONG-ARM (HANDS, FIST, FEET OR BODILY FORCE)",IC,Invest Cont,624,8700    BURNET                       AV,34.2283,-118.4633,11,2021,2021-11-07
06/01/2021 12:00:00 AM,05/30/2021 12:00:00 AM,2200,12,77th Street,2,930,CRIMINAL THREATS - NO WEAPON DISPLAYED,0913 1814 0443 0432 0422 1912,24,F,B,502,"MULTI-UNIT DWELLING (APARTMENT, DUPLEX, ETC)",511,VERBAL THREAT,AO,Adult Other,930,9400 S  WESTERN                      AV,33.9495,-118.309,05,2021,2021-05-30
05/10/2021 12:00:00 AM,05/10/2021 12:00:00 AM,2345,14,Pacific,2,902,VIOLATION OF TEMPORARY RESTRAINING ORDER,2000 2038,31,F,H,102,SIDEWALK,NA,,IC,Invest Cont,902,HAVELOCK,34.0038,-118.4423,05,2021,2021-05-10
05/10/2023 12:00:00 AM,01/01/2023 12:00:00 AM,30,15,N Hollywood,2,354,THEFT OF IDENTITY,1822,56,M,W,502,"MULTI-UNIT DWELLING (APARTMENT, DUPLEX, ETC)",NA,,IC,Invest Cont,354,6500    ENSIGN                       AV,34.1897,-118.3718,01,2023,2023-01-01
11/08/2022 12:00:00 AM,10/18/2022 12:00:00 AM,600,15,N Hollywood,1,341,"THEFT-GRAND ($950.01 & OVER)EXCPT,GUNS,FOWL,LIVESTK,PROD",0344,51,F,W,121,YARD (RESIDENTIAL/BUSINESS),NA,,IC,Invest Cont,341,11700    HARTSOOK                     ST,34.164,-118.3878,10,2022,2022-10-18
06/24/2023 12:00:00 AM,06/24/2023 12:00:00 AM,2245,1,Central,2,624,BATTERY - SIMPLE ASSAULT,0400 0416 1822,39,F,W,102,SIDEWALK,400,"STRONG-ARM (HANDS, FIST, FEET OR BODILY FORCE)",IC,Invest Cont,624,400 E  7TH                          ST,34.0421,-118.2469,06,2023,2023-06-24
04/13/2023 12:00:00 AM,04/13/2023 12:00:00 AM,1502,20,Olympic,2,740,"VANDALISM - FELONY ($400 & OVER, ALL CHURCH VANDALISMS)",0329 1607 1822 0216 0209 1309,50,M,W,502,"MULTI-UNIT DWELLING (APARTMENT, DUPLEX, ETC)",NA,,IC,Invest Cont,740,200 S  WILTON                       PL,34.0711,-118.3142,04,2023,2023-04-13
01/20/2022 12:00:00 AM,12/06/2021 12:00:00 AM,1930,12,77th Street,1,341,"THEFT-GRAND ($950.01 & OVER)EXCPT,GUNS,FOWL,LIVESTK,PROD",0344 0346 1822 0352,68,F,B,501,SINGLE FAMILY DWELLING,NA,,IC,Invest Cont,341,1800 W  94TH                         PL,33.9505,-118.3101,12,2021,2021-12-06
07/25/2022 12:00:00 AM,07/25/2022 12:00:00 AM,345,5,Harbor,1,331,THEFT FROM MOTOR VEHICLE - GRAND ($950.01 AND OVER),0216 0344 0385 1300 1309 1602,29,M,H,101,STREET,NA,,IC,Invest Cont,331,1700    FRIGATE                      AV,33.7969,-118.2774,07,2022,2022-07-25
09/15/2023 12:00:00 AM,09/14/2023 12:00:00 AM,2110,7,Wilshire,1,480,BIKE - STOLEN,1822 0344 0397,27,M,W,501,SINGLE FAMILY DWELLING,NA,,IC,Invest Cont,480,800 N  FULLER                       AV,34.0853,-118.3499,09,2023,2023-09-14
07/28/2021 12:00:00 AM,07/24/2021 12:00:00 AM,100,20,Olympic,2,664,"BUNCO, PETTY THEFT",1822 0100 0800 0701 0344,46,F,H,501,SINGLE FAMILY DWELLING,NA,,IC,Invest Cont,664,600 N  KINGSLEY                     DR,34.0822,-118.3034,07,2021,2021-07-24
07/29/2020 12:00:00 AM,07/28/2020 12:00:00 AM,1700,17,Devonshire,1,330,BURGLARY FROM VEHICLE,0344 0358,58,M,W,104,DRIVEWAY,NA,,IC,Invest Cont,330,20600    LEMARSH                      ST,34.2554,-118.5842,07,2020,2020-07-28
07/08/2020 12:00:00 AM,07/01/2020 12:00:00 AM,1205,14,Pacific,1,331,THEFT FROM MOTOR VEHICLE - GRAND ($950.01 AND OVER),0344 0385 1300,33,M,W,101,STREET,NA,,IC,Invest Cont,331,6200 W  78TH                         ST,33.9733,-118.3878,07,2020,2020-07-01
02/08/2021 12:00:00 AM,02/07/2021 12:00:00 AM,1700,2,Rampart,2,624,BATTERY - SIMPLE ASSAULT,0913 0602 0562 1242 1701 1202 0444 0416 0446 0448,75,F,H,502,"MULTI-UNIT DWELLING (APARTMENT, DUPLEX, ETC)",400,"STRONG-ARM (HANDS, FIST, FEET OR BODILY FORCE)",AO,Adult Other,624,100    LUCAS                        AV,34.0613,-118.2598,02,2021,2021-02-07
05/27/2020 12:00:00 AM,05/27/2020 12:00:00 AM,1900,17,Devonshire,2,886,DISTURBING THE PEACE,0913 0361 2035 0603,40,M,A,102,SIDEWALK,NA,,IC,Invest Cont,886,11400    GERALD                       AV,34.2778,-118.4945,05,2020,2020-05-27
11/30/2021 12:00:00 AM,11/28/2021 12:00:00 AM,1855,1,Central,2,956,"LETTERS, LEWD  -  TELEPHONE CALLS, LEWD",1906 0913 1817 2041,32,M,B,502,"MULTI-UNIT DWELLING (APARTMENT, DUPLEX, ETC)",NA,,IC,Invest Cont,956,700 W  9TH                          ST,34.0462,-118.2585,11,2021,2021-11-28
01/21/2022 12:00:00 AM,01/01/2022 12:00:00 AM,1600,14,Pacific,1,480,BIKE - STOLEN,0344,69,M,W,707,GARAGE/CARPORT,NA,,IC,Invest Cont,480,12400 W  FIELDING                     CR,33.9759,-118.4156,01,2022,2022-01-01
06/18/2022 12:00:00 AM,06/18/2022 12:00:00 AM,2100,3,Southwest,2,626,INTIMATE PARTNER - SIMPLE ASSAULT,0400 0416 0913 1814 2000,29,F,H,502,"MULTI-UNIT DWELLING (APARTMENT, DUPLEX, ETC)",400,"STRONG-ARM (HANDS, FIST, FEET OR BODILY FORCE)",AO,Adult Other,626,1800 W  22ND                         ST,34.0364,-118.3005,06,2022,2022-06-18
06/13/2021 12:00:00 AM,06/13/2021 12:00:00 AM,900,15,N Hollywood,1,236,INTIMATE PARTNER - AGGRAVATED ASSAULT,0400 0416 2000 0913 1813 0419 0448 0411,23,F,H,501,SINGLE FAMILY DWELLING,200,KNIFE WITH BLADE 6INCHES OR LESS,AA,Adult Arrest,236,11100    HATTERAS                     ST,34.1758,-118.3746,06,2021,2021-06-13
07/28/2022 12:00:00 AM,07/28/2022 12:00:00 AM,2315,12,77th Street,2,626,INTIMATE PARTNER - SIMPLE ASSAULT,1822 0913 2000 0445 0416,39,F,B,101,STREET,500,UNKNOWN WEAPON/OTHER WEAPON,AO,Adult Other,626,9300 S  WESTERN                      AV,33.9517,-118.309,07,2022,2022-07-28
08/13/2022 12:00:00 AM,08/13/2022 12:00:00 AM,20,6,Hollywood,1,230,"ASSAULT WITH DEADLY WEAPON, AGGRAVATED ASSAULT",1822 0400 0416,27,M,W,101,STREET,212,BOTTLE,IC,Invest Cont,230,6300    HOLLYWOOD                    BL,34.1016,-118.3267,08,2022,2022-08-13
07/12/2020 12:00:00 AM,07/12/2020 12:00:00 AM,1900,6,Hollywood,1,230,"ASSAULT WITH DEADLY WEAPON, AGGRAVATED ASSAULT",0400 0334 0416 0913 0603 0361 0601,54,M,H,104,DRIVEWAY,308,STICK,IC,Invest Cont,230,5700    FOUNTAIN                     AV,34.0947,-118.3147,07,2020,2020-07-12
09/16/2021 12:00:00 AM,09/16/2021 12:00:00 AM,211,6,Hollywood,1,230,"ASSAULT WITH DEADLY WEAPON, AGGRAVATED ASSAULT",0400 0411 1822 1501 1402,21,M,B,101,STREET,207,OTHER KNIFE,AO,Adult Other,230,SELMA,34.1034,-118.3325,09,2021,2021-09-16
10/08/2020 12:00:00 AM,10/08/2020 12:00:00 AM,1430,12,77th Street,2,626,INTIMATE PARTNER - SIMPLE ASSAULT,2000 1814 0444 1276,30,F,B,501,SINGLE FAMILY DWELLING,400,"STRONG-ARM (HANDS, FIST, FEET OR BODILY FORCE)",AO,Adult Other,626,800 E  76TH                         ST,33.9712,-118.2608,10,2020,2020-10-08
05/01/2022 12:00:00 AM,04/30/2022 12:00:00 AM,1000,1,Central,2,956,"LETTERS, LEWD  -  TELEPHONE CALLS, LEWD",0913 0443 0432 1906 1912,23,F,B,502,"MULTI-UNIT DWELLING (APARTMENT, DUPLEX, ETC)",511,VERBAL THREAT,AO,Adult Other,956,900 W  TEMPLE                       ST,34.0607,-118.2494,04,2022,2022-04-30
06/11/2023 12:00:00 AM,06/09/2023 12:00:00 AM,2300,21,Topanga,1,341,"THEFT-GRAND ($950.01 & OVER)EXCPT,GUNS,FOWL,LIVESTK,PROD",1814 0344,31,F,W,502,"MULTI-UNIT DWELLING (APARTMENT, DUPLEX, ETC)",NA,,AO,Adult Other,341,21200    OXNARD                       ST,34.1837,-118.5846,06,2023,2023-06-09
09/22/2022 12:00:00 AM,09/21/2022 12:00:00 AM,1900,4,Hollenbeck,2,624,BATTERY - SIMPLE ASSAULT,0416,43,M,H,502,"MULTI-UNIT DWELLING (APARTMENT, DUPLEX, ETC)",400,"STRONG-ARM (HANDS, FIST, FEET OR BODILY FORCE)",IC,Invest Cont,624,100 N  SOTO                         ST,34.0438,-118.2098,09,2022,2022-09-21
06/23/2022 12:00:00 AM,08/20/2021 12:00:00 AM,1115,1,Central,2,354,THEFT OF IDENTITY,0928 1822 0935,32,M,B,710,OTHER PREMISE,NA,,IC,Invest Cont,354,1300 S  FIGUEROA                     ST,34.0406,-118.268,08,2021,2021-08-20
03/24/2022 12:00:00 AM,03/24/2022 12:00:00 AM,1020,5,Harbor,1,236,INTIMATE PARTNER - AGGRAVATED ASSAULT,0913 1814 2000 0447,49,F,W,502,"MULTI-UNIT DWELLING (APARTMENT, DUPLEX, ETC)",500,UNKNOWN WEAPON/OTHER WEAPON,IC,Invest Cont,236,500 E  ANAHEIM                      ST,33.7803,-118.2573,03,2022,2022-03-24
08/26/2022 12:00:00 AM,08/26/2022 12:00:00 AM,1020,12,77th Street,2,354,THEFT OF IDENTITY,0100 0929 0922,32,F,B,501,SINGLE FAMILY DWELLING,NA,,IC,Invest Cont,354,10000 S  WESTERN                      AV,33.9455,-118.309,08,2022,2022-08-26
04/17/2023 12:00:00 AM,04/17/2023 12:00:00 AM,900,5,Harbor,2,662,"BUNCO, GRAND THEFT",0701 1822,20,F,W,501,SINGLE FAMILY DWELLING,NA,,IC,Invest Cont,662,1700 N  NEPTUNE                      AV,33.7972,-118.2702,04,2023,2023-04-17
02/11/2022 12:00:00 AM,02/10/2022 12:00:00 AM,1630,15,N Hollywood,1,330,BURGLARY FROM VEHICLE,1300 0344 1609 1307,63,F,W,108,PARKING LOT,NA,,IC,Invest Cont,330,11900    MOORPARK                     ST,34.1501,-118.3932,02,2022,2022-02-10
04/21/2021 12:00:00 AM,04/19/2021 12:00:00 AM,444,12,77th Street,2,740,"VANDALISM - FELONY ($400 & OVER, ALL CHURCH VANDALISMS)",0329 1307,40,M,B,122,"VEHICLE, PASSENGER/TRUCK",NA,,IC,Invest Cont,740,1800 W  70TH                         ST,33.9762,-118.3095,04,2021,2021-04-19
10/16/2023 12:00:00 AM,10/16/2023 12:00:00 AM,1630,15,N Hollywood,1,230,"ASSAULT WITH DEADLY WEAPON, AGGRAVATED ASSAULT",0411 0919 0334 3004 1300,37,M,W,101,STREET,204,FOLDING KNIFE,AA,Adult Arrest,230,BURBANK                      BL,34.1721,-118.3965,10,2023,2023-10-16
08/28/2022 12:00:00 AM,08/26/2022 12:00:00 AM,2040,20,Olympic,2,740,"VANDALISM - FELONY ($400 & OVER, ALL CHURCH VANDALISMS)",0329 1810 0913,28,M,H,502,"MULTI-UNIT DWELLING (APARTMENT, DUPLEX, ETC)",NA,,IC,Invest Cont,740,600 N  NORMANDIE                    AV,34.0799,-118.3025,08,2022,2022-08-26
09/15/2020 12:00:00 AM,09/12/2020 12:00:00 AM,1230,11,Northeast,1,420,THEFT FROM MOTOR VEHICLE - PETTY ($950 & UNDER),0344,56,M,B,101,STREET,500,UNKNOWN WEAPON/OTHER WEAPON,IC,Invest Cont,420,2400 N  COMMONWEALTH                 AV,34.1145,-118.2857,09,2020,2020-09-12
05/02/2022 12:00:00 AM,04/30/2022 12:00:00 AM,2330,6,Hollywood,1,440,THEFT PLAIN - PETTY ($950 & UNDER),0344 1822 1501,44,F,W,733,BAR/SPORTS BAR (OPEN DAY & NIGHT),NA,,IC,Invest Cont,440,1600 N  LAS PALMAS                   AV,34.0997,-118.3361,04,2022,2022-04-30
08/21/2021 12:00:00 AM,08/21/2021 12:00:00 AM,2230,3,Southwest,1,761,BRANDISH WEAPON,0334 1309 1310 1822,37,M,H,101,STREET,102,HAND GUN,IC,Invest Cont,761,MARTIN LUTHER KING JR        BL,34.0148,-118.3222,08,2021,2021-08-21
11/01/2022 12:00:00 AM,10/19/2022 12:00:00 AM,1134,1,Central,2,354,THEFT OF IDENTITY,0929 1822,66,M,F,602,BANK,NA,,IC,Invest Cont,354,400    BERNARD                      ST,34.0714,-118.2329,10,2022,2022-10-19
06/09/2020 12:00:00 AM,06/09/2020 12:00:00 AM,400,15,N Hollywood,1,480,BIKE - STOLEN,0344,35,F,W,104,DRIVEWAY,NA,,IC,Invest Cont,480,11300    BESSEMER                     ST,34.1804,-118.3768,06,2020,2020-06-09
05/09/2021 12:00:00 AM,05/08/2021 12:00:00 AM,1600,15,N Hollywood,1,310,BURGLARY,0344 0321 0216 1608,74,M,W,501,SINGLE FAMILY DWELLING,NA,,IC,Invest Cont,310,5500    RIVERTON                     AV,34.17,-118.3655,05,2021,2021-05-08
12/01/2021 12:00:00 AM,10/27/2021 12:00:00 AM,1500,4,Hollenbeck,1,310,BURGLARY,0344,53,M,B,120,STORAGE SHED,NA,,IC,Invest Cont,310,600 S  BOYLE                        AV,34.0386,-118.2201,10,2021,2021-10-27
09/14/2021 12:00:00 AM,08/30/2021 12:00:00 AM,1200,17,Devonshire,2,354,THEFT OF IDENTITY,1202 1822 0929 0928,69,M,W,502,"MULTI-UNIT DWELLING (APARTMENT, DUPLEX, ETC)",NA,,IC,Invest Cont,354,17800    MERRIDY                      ST,34.2522,-118.5216,08,2021,2021-08-30
07/08/2022 12:00:00 AM,07/03/2022 12:00:00 AM,749,13,Newton,2,354,THEFT OF IDENTITY,1822 0922 0929,38,F,H,605,AUTOMATED TELLER MACHINE (ATM),NA,,IC,Invest Cont,354,400 E  48TH                         ST,33.9997,-118.2696,07,2022,2022-07-03
06/26/2020 12:00:00 AM,06/25/2020 12:00:00 AM,2200,15,N Hollywood,1,330,BURGLARY FROM VEHICLE,1609 0344,34,M,B,108,PARKING LOT,NA,,IC,Invest Cont,330,3900 N  LANKERSHIM                   BL,34.1393,-118.362,06,2020,2020-06-25
07/16/2021 12:00:00 AM,07/16/2021 12:00:00 AM,1535,14,Pacific,2,762,LEWD CONDUCT,0500 0538,27,F,B,502,"MULTI-UNIT DWELLING (APARTMENT, DUPLEX, ETC)",NA,,IC,Invest Cont,762,6700 W  86TH                         PL,33.9592,-118.4068,07,2021,2021-07-16
04/15/2022 12:00:00 AM,04/15/2022 12:00:00 AM,820,16,Foothill,2,624,BATTERY - SIMPLE ASSAULT,0444 0913,51,F,W,501,SINGLE FAMILY DWELLING,400,"STRONG-ARM (HANDS, FIST, FEET OR BODILY FORCE)",AO,Adult Other,624,6300    HONOLULU                     AV,34.2331,-118.2691,04,2022,2022-04-15
12/28/2020 12:00:00 AM,12/28/2020 12:00:00 AM,910,1,Central,1,330,BURGLARY FROM VEHICLE,1307 1822 0329 0352 1609 0344,22,M,A,101,STREET,NA,,IC,Invest Cont,330,JACKSON,34.0509,-118.2316,12,2020,2020-12-28
01/06/2022 12:00:00 AM,01/06/2022 12:00:00 AM,1700,8,West LA,2,956,"LETTERS, LEWD  -  TELEPHONE CALLS, LEWD",1906 1822,26,F,W,501,SINGLE FAMILY DWELLING,500,UNKNOWN WEAPON/OTHER WEAPON,IC,Invest Cont,956,12200 W  GOSHEN                       AV,34.0449,-118.4692,01,2022,2022-01-06
05/23/2022 12:00:00 AM,05/23/2022 12:00:00 AM,100,18,Southeast,1,341,"THEFT-GRAND ($950.01 & OVER)EXCPT,GUNS,FOWL,LIVESTK,PROD",1822 0344 2032,41,M,H,501,SINGLE FAMILY DWELLING,NA,,IC,Invest Cont,341,9400 S  FIGUEROA                     ST,33.951,-118.2827,05,2022,2022-05-23
08/10/2022 12:00:00 AM,08/10/2022 12:00:00 AM,1335,1,Central,2,624,BATTERY - SIMPLE ASSAULT,1266 2004 0400 0447 0913,35,M,O,502,"MULTI-UNIT DWELLING (APARTMENT, DUPLEX, ETC)",500,UNKNOWN WEAPON/OTHER WEAPON,AO,Adult Other,624,500 S  SPRING                       ST,34.0467,-118.252,08,2022,2022-08-10
06/04/2022 12:00:00 AM,06/02/2022 12:00:00 AM,2130,15,N Hollywood,1,330,BURGLARY FROM VEHICLE,1300 0344,51,F,W,504,OTHER RESIDENCE,NA,,IC,Invest Cont,330,12200    MOORPARK                     ST,34.1533,-118.4058,06,2022,2022-06-02
03/06/2021 12:00:00 AM,03/06/2021 12:00:00 AM,430,13,Newton,2,623,BATTERY POLICE (SIMPLE),1822 1212 1419 1402 1407 0416,25,M,H,101,STREET,400,"STRONG-ARM (HANDS, FIST, FEET OR BODILY FORCE)",AA,Adult Arrest,623,18TH                         ST,34.0289,-118.2686,03,2021,2021-03-06
02/27/2022 12:00:00 AM,02/27/2022 12:00:00 AM,1230,21,Topanga,2,626,INTIMATE PARTNER - SIMPLE ASSAULT,0416 1813 2000 1310,24,F,H,101,STREET,400,"STRONG-ARM (HANDS, FIST, FEET OR BODILY FORCE)",AO,Adult Other,626,VANOWEN                      ST,34.1938,-118.5723,02,2022,2022-02-27
05/15/2022 12:00:00 AM,05/15/2022 12:00:00 AM,1050,11,Northeast,1,230,"ASSAULT WITH DEADLY WEAPON, AGGRAVATED ASSAULT",1822 1202 0447 0334,62,F,W,124,BUS STOP,212,BOTTLE,IC,Invest Cont,230,IDELL                        ST,34.0883,-118.2219,05,2022,2022-05-15
10/03/2022 12:00:00 AM,10/01/2022 12:00:00 AM,2000,11,Northeast,1,331,THEFT FROM MOTOR VEHICLE - GRAND ($950.01 AND OVER),0344 0385,39,M,W,101,STREET,NA,,IC,Invest Cont,331,4800    LEXINGTON                    AV,34.0934,-118.2939,10,2022,2022-10-01
07/18/2020 12:00:00 AM,07/17/2020 12:00:00 AM,1430,13,Newton,2,626,INTIMATE PARTNER - SIMPLE ASSAULT,0416 2000 0913,26,F,H,502,"MULTI-UNIT DWELLING (APARTMENT, DUPLEX, ETC)",400,"STRONG-ARM (HANDS, FIST, FEET OR BODILY FORCE)",IC,Invest Cont,626,1700 E  54TH                         ST,33.9938,-118.2432,07,2020,2020-07-17
11/22/2020 12:00:00 AM,07/09/2020 12:00:00 AM,1230,10,West Valley,1,341,"THEFT-GRAND ($950.01 & OVER)EXCPT,GUNS,FOWL,LIVESTK,PROD",1702 1202 0913 0344 0701 1817,70,F,B,602,BANK,NA,,IC,Invest Cont,341,19300    SATICOY                      ST,34.2143,-118.5534,07,2020,2020-07-09
07/19/2021 12:00:00 AM,07/16/2021 12:00:00 AM,1830,6,Hollywood,2,900,VIOLATION OF COURT ORDER,0913 2038,42,F,W,501,SINGLE FAMILY DWELLING,NA,,AO,Adult Other,900,8200    SKYLINE                      DR,34.1202,-118.391,07,2021,2021-07-16
04/04/2022 12:00:00 AM,04/03/2022 12:00:00 AM,1330,9,Van Nuys,1,330,BURGLARY FROM VEHICLE,0329 0321,58,M,W,123,PARKING UNDERGROUND/BUILDING,NA,,IC,Invest Cont,330,COLDWATER CANYON,34.137,-118.4187,04,2022,2022-04-03
07/28/2023 12:00:00 AM,07/08/2023 12:00:00 AM,435,6,Hollywood,1,440,THEFT PLAIN - PETTY ($950 & UNDER),1822 0344 0394,31,F,H,502,"MULTI-UNIT DWELLING (APARTMENT, DUPLEX, ETC)",NA,,IC,Invest Cont,440,1600 N  FORMOSA                      AV,34.0998,-118.3468,07,2023,2023-07-08
03/22/2022 12:00:00 AM,03/16/2022 12:00:00 AM,2215,8,West LA,1,330,BURGLARY FROM VEHICLE,0400 0344 1606 1822,32,F,W,707,GARAGE/CARPORT,NA,,IC,Invest Cont,330,1200    ARMACOST                     AV,34.0466,-118.4643,03,2022,2022-03-16
04/06/2022 12:00:00 AM,04/06/2022 12:00:00 AM,930,17,Devonshire,1,761,BRANDISH WEAPON,1822 1223 0202 1202 0334 1402,70,M,W,101,STREET,205,KITCHEN KNIFE,IC,Invest Cont,761,8600    AQUEDUCT                     AV,34.2265,-118.4742,04,2022,2022-04-06
01/04/2022 12:00:00 AM,12/15/2021 12:00:00 AM,1630,20,Olympic,1,341,"THEFT-GRAND ($950.01 & OVER)EXCPT,GUNS,FOWL,LIVESTK,PROD",1822 0344,29,F,A,101,STREET,NA,,IC,Invest Cont,341,400 S  WINDSOR                      BL,34.0671,-118.3214,12,2021,2021-12-15
10/20/2022 12:00:00 AM,08/11/2022 12:00:00 AM,300,14,Pacific,2,354,THEFT OF IDENTITY,1822,75,F,W,502,"MULTI-UNIT DWELLING (APARTMENT, DUPLEX, ETC)",NA,,IC,Invest Cont,354,8500    FALMOUTH                     AV,33.9587,-118.4373,08,2022,2022-08-11
09/19/2020 12:00:00 AM,09/18/2020 12:00:00 AM,1900,14,Pacific,1,330,BURGLARY FROM VEHICLE,1300 0344 1609 1402,22,M,W,123,PARKING UNDERGROUND/BUILDING,NA,,IC,Invest Cont,330,13600    MARINA POINTE                DR,33.9849,-118.4445,09,2020,2020-09-18
10/02/2021 12:00:00 AM,09/30/2021 12:00:00 AM,2115,7,Wilshire,2,901,VIOLATION OF RESTRAINING ORDER,2038 0360 2004,55,F,H,501,SINGLE FAMILY DWELLING,NA,,IC,Invest Cont,901,1400 S  COCHRAN                      AV,34.0477,-118.3529,09,2021,2021-09-30
09/14/2022 12:00:00 AM,09/13/2022 12:00:00 AM,2140,9,Van Nuys,1,210,ROBBERY,1300 1310 1822 0334 0344,22,F,O,108,PARKING LOT,102,HAND GUN,IC,Invest Cont,210,VENTURA                      BL,34.1539,-118.4662,09,2022,2022-09-13
10/01/2020 12:00:00 AM,10/01/2020 12:00:00 AM,1045,8,West LA,2,745,VANDALISM - MISDEAMEANOR ($399 OR UNDER),0329,48,M,O,507,CONDOMINIUM/TOWNHOUSE,NA,,AO,Adult Other,745,1000 S  SHENANDOAH                   ST,34.0571,-118.3815,10,2020,2020-10-01
02/03/2022 12:00:00 AM,02/03/2022 12:00:00 AM,410,16,Foothill,1,210,ROBBERY,0302 0337 0308 0344 1822,36,M,B,108,PARKING LOT,101,REVOLVER,IC,Invest Cont,210,7700    LANKERSHIM                   BL,34.2166,-118.3919,02,2022,2022-02-03
09/13/2020 12:00:00 AM,09/12/2020 12:00:00 AM,1900,15,N Hollywood,1,310,BURGLARY,0344 0352,29,M,B,502,"MULTI-UNIT DWELLING (APARTMENT, DUPLEX, ETC)",NA,,IC,Invest Cont,310,4200    CAHUENGA                     BL,34.1499,-118.3635,09,2020,2020-09-12
10/30/2020 12:00:00 AM,04/18/2020 12:00:00 AM,1935,4,Hollenbeck,1,331,THEFT FROM MOTOR VEHICLE - GRAND ($950.01 AND OVER),0344,65,F,H,502,"MULTI-UNIT DWELLING (APARTMENT, DUPLEX, ETC)",NA,,IC,Invest Cont,331,500    SAN BENITO                   ST,34.0506,-118.2135,04,2020,2020-04-18
08/24/2020 12:00:00 AM,08/24/2020 12:00:00 AM,730,16,Foothill,2,626,INTIMATE PARTNER - SIMPLE ASSAULT,2000 0913 1814 0416,63,M,W,101,STREET,400,"STRONG-ARM (HANDS, FIST, FEET OR BODILY FORCE)",AO,Adult Other,626,6600    VALMONT                      ST,34.2515,-118.2757,08,2020,2020-08-24
08/29/2023 12:00:00 AM,07/28/2023 12:00:00 AM,1045,14,Pacific,1,440,THEFT PLAIN - PETTY ($950 & UNDER),1822 0344,36,F,W,212,TRANSPORTATION FACILITY (AIRPORT),500,UNKNOWN WEAPON/OTHER WEAPON,IC,Invest Cont,440,600    WORLD                        WY,33.9429,-118.403,07,2023,2023-07-28
07/26/2023 12:00:00 AM,07/25/2023 12:00:00 AM,1101,3,Southwest,1,442,SHOPLIFTING - PETTY THEFT ($950 & UNDER),0104 0325 0352 2028 0913,22,X,X,404,DEPARTMENT STORE,NA,,IC,Invest Cont,442,3500    LA CIENEGA                   BL,34.0242,-118.3722,07,2023,2023-07-25
09/21/2021 12:00:00 AM,09/20/2021 12:00:00 AM,2155,11,Northeast,1,230,"ASSAULT WITH DEADLY WEAPON, AGGRAVATED ASSAULT",1410 1409 0906 1822 1402 1100 0430 1419 1407,31,M,H,109,PARK/PLAYGROUND,102,HAND GUN,IC,Invest Cont,230,2900    GLENEDEN                     ST,34.1068,-118.2487,09,2021,2021-09-20
08/06/2022 12:00:00 AM,08/05/2022 12:00:00 AM,1400,20,Olympic,1,440,THEFT PLAIN - PETTY ($950 & UNDER),0344 1822 2032,24,M,B,502,"MULTI-UNIT DWELLING (APARTMENT, DUPLEX, ETC)",NA,,IC,Invest Cont,440,1200    ARAPAHOE                     ST,34.0491,-118.2854,08,2022,2022-08-05
03/17/2020 12:00:00 AM,03/17/2020 12:00:00 AM,1145,3,Southwest,2,624,BATTERY - SIMPLE ASSAULT,0416 1202 0447 1810 0444,72,M,B,501,SINGLE FAMILY DWELLING,400,"STRONG-ARM (HANDS, FIST, FEET OR BODILY FORCE)",IC,Invest Cont,624,4300 W  28TH                         ST,34.0312,-118.3327,03,2020,2020-03-17
09/07/2021 12:00:00 AM,09/06/2021 12:00:00 AM,2000,19,Mission,1,330,BURGLARY FROM VEHICLE,0344,29,M,A,101,STREET,NA,,IC,Invest Cont,330,ROSCOE                       BL,34.2216,-118.4434,09,2021,2021-09-06
06/22/2023 12:00:00 AM,06/22/2023 12:00:00 AM,710,3,Southwest,2,625,OTHER ASSAULT,0361 1202 1501 0603 0913,59,M,B,121,YARD (RESIDENTIAL/BUSINESS),500,UNKNOWN WEAPON/OTHER WEAPON,IC,Invest Cont,625,4200    9TH                          AV,34.0064,-118.3268,06,2023,2023-06-22
07/20/2021 12:00:00 AM,07/20/2021 12:00:00 AM,2105,14,Pacific,2,624,BATTERY - SIMPLE ASSAULT,0400 0417 1822,70,M,A,403,DRUG STORE,400,"STRONG-ARM (HANDS, FIST, FEET OR BODILY FORCE)",AA,Adult Arrest,624,8900    VENICE                       BL,34.0291,-118.3886,07,2021,2021-07-20
01/19/2020 12:00:00 AM,01/19/2020 12:00:00 AM,1810,2,Rampart,1,210,ROBBERY,1822 0305 0431 0352 0344,27,M,H,102,SIDEWALK,512,MACE/PEPPER SPRAY,IC,Invest Cont,210,2400    OCEAN VIEW                   AV,34.0627,-118.2773,01,2020,2020-01-19
11/19/2023 12:00:00 AM,11/14/2023 12:00:00 AM,1700,14,Pacific,1,330,BURGLARY FROM VEHICLE,0344,37,M,W,707,GARAGE/CARPORT,NA,,IC,Invest Cont,330,5800 W  88TH                         ST,33.9569,-118.384,11,2023,2023-11-14
05/11/2022 12:00:00 AM,05/11/2022 12:00:00 AM,730,14,Pacific,1,230,"ASSAULT WITH DEADLY WEAPON, AGGRAVATED ASSAULT",0445 0400 0416 0443 1402 2004 1822,44,M,W,736,SKATEBOARD FACILITY/SKATEBOARD PARK*,308,STICK,AA,Adult Arrest,230,1800    OCEAN FRONT                  WK,33.9858,-118.4728,05,2022,2022-05-11
08/20/2021 12:00:00 AM,08/19/2021 12:00:00 AM,1400,9,Van Nuys,2,664,"BUNCO, PETTY THEFT",0344 0800,41,F,H,502,"MULTI-UNIT DWELLING (APARTMENT, DUPLEX, ETC)",NA,,IC,Invest Cont,664,15300    VANOWEN                      ST,34.1939,-118.467,08,2021,2021-08-19
07/15/2022 12:00:00 AM,06/01/2022 12:00:00 AM,1210,18,Southeast,2,354,THEFT OF IDENTITY,0922 1822,19,M,B,501,SINGLE FAMILY DWELLING,NA,,IC,Invest Cont,354,300 E  116TH                        ST,33.9292,-118.2696,06,2022,2022-06-01
01/09/2021 12:00:00 AM,01/06/2021 12:00:00 AM,1900,13,Newton,1,230,"ASSAULT WITH DEADLY WEAPON, AGGRAVATED ASSAULT",0913 0416 1309 1817,37,F,W,102,SIDEWALK,309,BOARD,IC,Invest Cont,230,7TH,34.0387,-118.2439,01,2021,2021-01-06
08/31/2021 12:00:00 AM,08/30/2021 12:00:00 AM,2030,15,N Hollywood,1,331,THEFT FROM MOTOR VEHICLE - GRAND ($950.01 AND OVER),0344 1402,28,M,W,108,PARKING LOT,NA,,AA,Adult Arrest,331,12000    KLING                        ST,34.1558,-118.3943,08,2021,2021-08-30
08/31/2020 12:00:00 AM,07/16/2020 12:00:00 AM,1300,1,Central,1,331,THEFT FROM MOTOR VEHICLE - GRAND ($950.01 AND OVER),1606 1822 1300 0344,36,M,W,123,PARKING UNDERGROUND/BUILDING,NA,,IC,Invest Cont,331,900 S  OLIVE                        ST,34.0423,-118.2595,07,2020,2020-07-16
10/03/2020 12:00:00 AM,07/01/2020 12:00:00 AM,800,9,Van Nuys,1,331,THEFT FROM MOTOR VEHICLE - GRAND ($950.01 AND OVER),0344 1300,46,F,W,101,STREET,NA,,IC,Invest Cont,331,4600    SALOMA                       AV,34.1549,-118.4585,07,2020,2020-07-01
10/11/2021 12:00:00 AM,10/11/2021 12:00:00 AM,1303,18,Southeast,1,110,CRIMINAL HOMICIDE,1402 1822 0906 0430 1100,19,M,B,203,OTHER BUSINESS,106,UNKNOWN FIREARM,AO,Adult Other,110,9000 S  BROADWAY,33.955,-118.2782,10,2021,2021-10-11
10/25/2022 12:00:00 AM,10/25/2022 12:00:00 AM,915,2,Rampart,2,624,BATTERY - SIMPLE ASSAULT,0416 0552,40,F,H,203,OTHER BUSINESS,400,"STRONG-ARM (HANDS, FIST, FEET OR BODILY FORCE)",AO,Adult Other,624,500    WITMER                       ST,34.0561,-118.2653,10,2022,2022-10-25
10/01/2022 12:00:00 AM,10/01/2022 12:00:00 AM,1530,6,Hollywood,1,761,BRANDISH WEAPON,1822 0342 1309 0334 0400 0432 0421,46,F,W,102,SIDEWALK,102,HAND GUN,IC,Invest Cont,761,WESTERN,34.1005,-118.3092,10,2022,2022-10-01
04/13/2020 12:00:00 AM,04/13/2020 12:00:00 AM,1010,7,Wilshire,1,440,THEFT PLAIN - PETTY ($950 & UNDER),0344,54,M,H,501,SINGLE FAMILY DWELLING,NA,,IC,Invest Cont,440,1800 S  MANSFIELD                    AV,34.0427,-118.3478,04,2020,2020-04-13
05/28/2023 12:00:00 AM,05/27/2023 12:00:00 AM,1400,10,West Valley,1,310,BURGLARY,1822 1607,73,M,W,501,SINGLE FAMILY DWELLING,500,UNKNOWN WEAPON/OTHER WEAPON,IC,Invest Cont,310,6300    ENFIELD                      AV,34.1859,-118.5238,05,2023,2023-05-27
05/20/2023 12:00:00 AM,05/20/2023 12:00:00 AM,30,17,Devonshire,2,740,"VANDALISM - FELONY ($400 & OVER, ALL CHURCH VANDALISMS)",0329,22,F,W,501,SINGLE FAMILY DWELLING,NA,,IC,Invest Cont,740,9500    BABBIT                       AV,34.2467,-118.5112,05,2023,2023-05-20
01/06/2023 12:00:00 AM,01/02/2023 12:00:00 AM,140,10,West Valley,1,330,BURGLARY FROM VEHICLE,1822 0344 1300,45,F,H,108,PARKING LOT,NA,,IC,Invest Cont,330,8100    WYNNE                        AV,34.2177,-118.5303,01,2023,2023-01-02
04/03/2020 12:00:00 AM,04/01/2020 12:00:00 AM,1610,1,Central,1,330,BURGLARY FROM VEHICLE,1609 0344 1307 0329 1822,28,M,W,101,STREET,NA,,IC,Invest Cont,330,800    YALE                         ST,34.0632,-118.2408,04,2020,2020-04-01
09/18/2023 12:00:00 AM,09/18/2023 12:00:00 AM,2019,18,Southeast,1,230,"ASSAULT WITH DEADLY WEAPON, AGGRAVATED ASSAULT",1822 0431 0432 1300,48,F,H,104,DRIVEWAY,512,MACE/PEPPER SPRAY,AO,Adult Other,230,200 W  COLDEN                       AV,33.9492,-118.2766,09,2023,2023-09-18
08/03/2020 12:00:00 AM,08/03/2020 12:00:00 AM,1650,3,Southwest,1,421,THEFT FROM MOTOR VEHICLE - ATTEMPT,0329 1822 0342 1251 1309 1606,22,M,W,101,STREET,NA,,IC,Invest Cont,421,700 W  27TH                         ST,34.0281,-118.2788,08,2020,2020-08-03
06/30/2023 12:00:00 AM,11/01/2022 12:00:00 AM,1,12,77th Street,1,815,SEXUAL PENETRATION W/FOREIGN OBJECT,0552 0522 0913 0515,14,F,H,501,SINGLE FAMILY DWELLING,400,"STRONG-ARM (HANDS, FIST, FEET OR BODILY FORCE)",IC,Invest Cont,812,1100 W  48TH                         ST,33.9996,-118.2938,11,2022,2022-11-01
04/01/2021 12:00:00 AM,03/30/2021 12:00:00 AM,600,8,West LA,2,354,THEFT OF IDENTITY,0100 1202 0928,63,F,J,502,"MULTI-UNIT DWELLING (APARTMENT, DUPLEX, ETC)",NA,,IC,Invest Cont,354,1100    REXFORD                      DR,34.0557,-118.3939,03,2021,2021-03-30
01/13/2022 12:00:00 AM,01/12/2022 12:00:00 AM,2300,12,77th Street,2,624,BATTERY - SIMPLE ASSAULT,0444 0913 1259 0552,17,M,H,502,"MULTI-UNIT DWELLING (APARTMENT, DUPLEX, ETC)",400,"STRONG-ARM (HANDS, FIST, FEET OR BODILY FORCE)",IC,Invest Cont,624,800 W  47TH                         ST,34.0006,-118.2871,01,2022,2022-01-12
07/09/2023 12:00:00 AM,07/08/2023 12:00:00 AM,2300,13,Newton,1,330,BURGLARY FROM VEHICLE,0329 0344 0358 1300 1822 1612,23,M,H,101,STREET,500,UNKNOWN WEAPON/OTHER WEAPON,IC,Invest Cont,330,WASHINGTON                   BL,34.0259,-118.2506,07,2023,2023-07-08
08/01/2023 12:00:00 AM,08/01/2023 12:00:00 AM,1515,1,Central,1,420,THEFT FROM MOTOR VEHICLE - PETTY ($950 & UNDER),0344,32,M,W,101,STREET,NA,,IC,Invest Cont,420,7TH                          AV,34.049,-118.2592,08,2023,2023-08-01
08/24/2022 12:00:00 AM,08/23/2022 12:00:00 AM,2100,18,Southeast,2,740,"VANDALISM - FELONY ($400 & OVER, ALL CHURCH VANDALISMS)",1822 0329,31,F,H,122,"VEHICLE, PASSENGER/TRUCK",NA,,IC,Invest Cont,740,800 W  EL SEGUNDO                   BL,33.9164,-118.2894,08,2022,2022-08-23
05/09/2020 12:00:00 AM,05/08/2020 12:00:00 AM,310,9,Van Nuys,1,341,"THEFT-GRAND ($950.01 & OVER)EXCPT,GUNS,FOWL,LIVESTK,PROD",0344,31,M,H,108,PARKING LOT,NA,,IC,Invest Cont,341,13700    VANOWEN                      ST,34.1976,-118.4356,05,2020,2020-05-08
10/10/2022 12:00:00 AM,10/09/2022 12:00:00 AM,30,16,Foothill,1,220,ATTEMPTED ROBBERY,1501 0416 1822,37,M,H,101,STREET,400,"STRONG-ARM (HANDS, FIST, FEET OR BODILY FORCE)",AA,Adult Arrest,220,10800    SUTTER                       AV,34.2659,-118.4205,10,2022,2022-10-09
01/27/2023 12:00:00 AM,01/26/2023 12:00:00 AM,1530,16,Foothill,1,440,THEFT PLAIN - PETTY ($950 & UNDER),0344 1822 0390,61,F,H,101,STREET,NA,,IC,Invest Cont,440,7800    SIMPSON                      AV,34.2121,-118.3889,01,2023,2023-01-26
12/14/2022 12:00:00 AM,12/05/2022 12:00:00 AM,751,5,Harbor,2,354,THEFT OF IDENTITY,0930 1822,28,M,W,242,"DISCOUNT STORE (99 CENT,DOLLAR,ETC.",NA,,IC,Invest Cont,354,800 N  FRIES                        AV,33.7798,-118.2649,12,2022,2022-12-05
08/19/2021 12:00:00 AM,08/19/2021 12:00:00 AM,520,13,Newton,1,320,"BURGLARY, ATTEMPTED",1602,27,M,O,213,WAREHOUSE,500,UNKNOWN WEAPON/OTHER WEAPON,IC,Invest Cont,320,1100 E  14TH                         ST,34.029,-118.248,08,2021,2021-08-19
04/15/2020 12:00:00 AM,04/14/2020 12:00:00 AM,2030,3,Southwest,1,761,BRANDISH WEAPON,0334 0603 0443 0361 0913,55,F,B,501,SINGLE FAMILY DWELLING,312,PIPE/METAL PIPE,AO,Adult Other,761,1200 W  39TH                         ST,34.0155,-118.2974,04,2020,2020-04-14
10/07/2023 12:00:00 AM,10/05/2023 12:00:00 AM,2230,3,Southwest,2,624,BATTERY - SIMPLE ASSAULT,1822 1202 1309 0447,60,F,H,203,OTHER BUSINESS,500,UNKNOWN WEAPON/OTHER WEAPON,IC,Invest Cont,624,4000    CRENSHAW                     BL,34.0164,-118.3312,10,2023,2023-10-05
11/27/2020 12:00:00 AM,11/27/2020 12:00:00 AM,2100,11,Northeast,2,624,BATTERY - SIMPLE ASSAULT,0361 0400 0417 0429 0913,56,F,W,501,SINGLE FAMILY DWELLING,400,"STRONG-ARM (HANDS, FIST, FEET OR BODILY FORCE)",AO,Adult Other,624,2200    FARGO                        ST,34.092,-118.2586,11,2020,2020-11-27
07/28/2022 12:00:00 AM,07/27/2022 12:00:00 AM,2000,10,West Valley,1,331,THEFT FROM MOTOR VEHICLE - GRAND ($950.01 AND OVER),1822 0344,79,M,A,108,PARKING LOT,NA,,IC,Invest Cont,331,6500    WILBUR                       AV,34.1887,-118.5447,07,2022,2022-07-27
05/15/2020 12:00:00 AM,05/13/2020 12:00:00 AM,1400,1,Central,1,520,VEHICLE - ATTEMPT STOLEN,0329 1300 1822 1607 1612,28,F,B,101,STREET,NA,,IC,Invest Cont,520,1400 S  FLOWER                       ST,34.0388,-118.2676,05,2020,2020-05-13
10/05/2020 12:00:00 AM,10/05/2020 12:00:00 AM,1300,16,Foothill,1,420,THEFT FROM MOTOR VEHICLE - PETTY ($950 & UNDER),0329 0385,31,M,H,122,"VEHICLE, PASSENGER/TRUCK",NA,,IC,Invest Cont,420,11200    ORCAS                        AV,34.2728,-118.3683,10,2020,2020-10-05
08/06/2020 12:00:00 AM,08/04/2020 12:00:00 AM,1438,17,Devonshire,2,956,"LETTERS, LEWD  -  TELEPHONE CALLS, LEWD",1501 1906 1822,37,M,B,501,SINGLE FAMILY DWELLING,NA,,IC,Invest Cont,956,10000    JORDAN                       AV,34.2521,-118.6039,08,2020,2020-08-04
08/02/2023 12:00:00 AM,08/02/2023 12:00:00 AM,40,18,Southeast,2,901,VIOLATION OF RESTRAINING ORDER,0913 2038,38,F,H,502,"MULTI-UNIT DWELLING (APARTMENT, DUPLEX, ETC)",NA,,IC,Invest Cont,901,8900 S  SAN PEDRO                    ST,33.9556,-118.2695,08,2023,2023-08-02
10/06/2022 12:00:00 AM,01/01/2021 12:00:00 AM,5,19,Mission,2,812,CRM AGNST CHLD (13 OR UNDER) (14-15 & SUSP 10 YRS OLDER),0913 2024 1817 0522 0503 1258,9,F,H,502,"MULTI-UNIT DWELLING (APARTMENT, DUPLEX, ETC)",400,"STRONG-ARM (HANDS, FIST, FEET OR BODILY FORCE)",JO,Juv Other,812,8800    SYLMAR                       AV,34.2299,-118.4455,01,2021,2021-01-01
04/18/2021 12:00:00 AM,04/18/2021 12:00:00 AM,640,16,Foothill,1,330,BURGLARY FROM VEHICLE,0344 1607,49,F,H,108,PARKING LOT,NA,,IC,Invest Cont,330,12600    FOOTHILL                     BL,34.2884,-118.4098,04,2021,2021-04-18
02/02/2021 12:00:00 AM,02/02/2021 12:00:00 AM,1845,16,Foothill,2,740,"VANDALISM - FELONY ($400 & OVER, ALL CHURCH VANDALISMS)",1822 0329 1307,45,F,H,501,SINGLE FAMILY DWELLING,NA,,IC,Invest Cont,740,HADDON,34.2567,-118.4241,02,2021,2021-02-02
06/01/2022 12:00:00 AM,06/01/2022 12:00:00 AM,1125,18,Southeast,2,354,THEFT OF IDENTITY,1822,33,M,B,501,SINGLE FAMILY DWELLING,NA,,IC,Invest Cont,354,200 E  118TH                        PL,33.9256,-118.2713,06,2022,2022-06-01
08/28/2023 12:00:00 AM,05/01/2023 12:00:00 AM,1200,9,Van Nuys,2,900,VIOLATION OF COURT ORDER,1813 1501,26,M,H,501,SINGLE FAMILY DWELLING,NA,,AO,Adult Other,900,14900    WYANDOTTE                    ST,34.203,-118.4575,05,2023,2023-05-01
04/02/2020 12:00:00 AM,04/02/2020 12:00:00 AM,600,7,Wilshire,1,420,THEFT FROM MOTOR VEHICLE - PETTY ($950 & UNDER),0344 0349,37,F,W,123,PARKING UNDERGROUND/BUILDING,NA,,IC,Invest Cont,420,300    HAUSER                       BL,34.0699,-118.3511,04,2020,2020-04-02
04/10/2021 12:00:00 AM,04/10/2021 12:00:00 AM,500,13,Newton,2,745,VANDALISM - MISDEAMEANOR ($399 OR UNDER),0329 1202,60,M,F,122,"VEHICLE, PASSENGER/TRUCK",NA,,IC,Invest Cont,745,3400 S  GRAND                        AV,34.0199,-118.2763,04,2021,2021-04-10
04/18/2023 12:00:00 AM,04/15/2023 12:00:00 AM,2130,20,Olympic,1,331,THEFT FROM MOTOR VEHICLE - GRAND ($950.01 AND OVER),0344 0385 1602 1822,38,M,O,101,STREET,NA,,IC,Invest Cont,331,1ST                          ST,34.0731,-118.3113,04,2023,2023-04-15
12/22/2020 12:00:00 AM,12/22/2020 12:00:00 AM,1106,3,Southwest,1,230,"ASSAULT WITH DEADLY WEAPON, AGGRAVATED ASSAULT",1822 0342 1100 0430 1218 1309 0216 1407 0334 0906,29,M,B,102,SIDEWALK,102,HAND GUN,AA,Adult Arrest,230,ADAMS,34.0325,-118.3503,12,2020,2020-12-22
09/19/2020 12:00:00 AM,06/28/2020 12:00:00 AM,2100,14,Pacific,1,341,"THEFT-GRAND ($950.01 & OVER)EXCPT,GUNS,FOWL,LIVESTK,PROD",0344,74,M,W,108,PARKING LOT,NA,,AO,Adult Other,341,3200    MOTOR                        AV,34.0306,-118.4134,06,2020,2020-06-28
10/19/2023 12:00:00 AM,10/19/2023 12:00:00 AM,1915,10,West Valley,1,310,BURGLARY,1822 1609 1402 0352 0321 1210,55,M,A,501,SINGLE FAMILY DWELLING,NA,,IC,Invest Cont,310,16800    ADDISON                      ST,34.1624,-118.4993,10,2023,2023-10-19
06/03/2022 12:00:00 AM,06/03/2022 12:00:00 AM,1313,18,Southeast,2,354,THEFT OF IDENTITY,1822 0100 0930,35,F,H,501,SINGLE FAMILY DWELLING,NA,,IC,Invest Cont,354,900 E  111TH                        DR,33.9337,-118.2586,06,2022,2022-06-03
01/02/2023 12:00:00 AM,01/02/2023 12:00:00 AM,639,18,Southeast,2,354,THEFT OF IDENTITY,1822 0922,32,F,H,501,SINGLE FAMILY DWELLING,NA,,IC,Invest Cont,354,400 W  113TH                        ST,33.932,-118.2817,01,2023,2023-01-02
04/19/2023 12:00:00 AM,04/18/2023 12:00:00 AM,1000,1,Central,1,330,BURGLARY FROM VEHICLE,0344 0329 1307 1609,49,M,W,123,PARKING UNDERGROUND/BUILDING,NA,,IC,Invest Cont,330,300 S  SPRING                       ST,34.0502,-118.2487,04,2023,2023-04-18
12/29/2021 12:00:00 AM,12/28/2021 12:00:00 AM,1355,2,Rampart,2,740,"VANDALISM - FELONY ($400 & OVER, ALL CHURCH VANDALISMS)",0329 1307,33,M,H,122,"VEHICLE, PASSENGER/TRUCK",NA,,IC,Invest Cont,740,100    ROBINSON                     ST,34.0726,-118.284,12,2021,2021-12-28
05/31/2023 12:00:00 AM,05/30/2023 12:00:00 AM,1740,1,Central,2,624,BATTERY - SIMPLE ASSAULT,0444,61,F,W,502,"MULTI-UNIT DWELLING (APARTMENT, DUPLEX, ETC)",400,"STRONG-ARM (HANDS, FIST, FEET OR BODILY FORCE)",AO,Adult Other,624,200 W  6TH                          ST,34.046,-118.251,05,2023,2023-05-30
10/20/2023 12:00:00 AM,10/20/2023 12:00:00 AM,910,6,Hollywood,2,354,THEFT OF IDENTITY,1822,45,F,W,502,"MULTI-UNIT DWELLING (APARTMENT, DUPLEX, ETC)",NA,,IC,Invest Cont,354,1800    VINE                         ST,34.1037,-118.3267,10,2023,2023-10-20
07/05/2021 12:00:00 AM,07/02/2021 12:00:00 AM,5,11,Northeast,1,330,BURGLARY FROM VEHICLE,0344 1302 1402,38,M,B,101,STREET,NA,,IC,Invest Cont,330,1600    LYMAN                        PL,34.1,-118.2885,07,2021,2021-07-02
04/05/2022 12:00:00 AM,04/04/2022 12:00:00 AM,1124,1,Central,2,354,THEFT OF IDENTITY,0922,58,M,O,710,OTHER PREMISE,NA,,IC,Invest Cont,354,800 E  4TH                          PL,34.0454,-118.2333,04,2022,2022-04-04
07/20/2023 12:00:00 AM,07/20/2023 12:00:00 AM,2130,14,Pacific,2,740,"VANDALISM - FELONY ($400 & OVER, ALL CHURCH VANDALISMS)",0329,18,M,O,103,ALLEY,NA,,IC,Invest Cont,740,SPEEDWAY,33.9792,-118.4666,07,2023,2023-07-20
08/28/2021 12:00:00 AM,08/06/2021 12:00:00 AM,1700,14,Pacific,1,821,SODOMY/SEXUAL CONTACT B/W PENIS OF ONE PERS TO ANUS OTH,0545 0913 1817 0504 0510 0448 0443 0519 0400 0537,18,M,B,503,HOTEL,400,"STRONG-ARM (HANDS, FIST, FEET OR BODILY FORCE)",IC,Invest Cont,821,5400 W  CENTURY                      BL,33.9453,-118.3747,08,2021,2021-08-06
11/22/2023 12:00:00 AM,11/21/2023 12:00:00 AM,2300,2,Rampart,2,740,"VANDALISM - FELONY ($400 & OVER, ALL CHURCH VANDALISMS)",1300 0329 1822,45,F,H,122,"VEHICLE, PASSENGER/TRUCK",NA,,IC,Invest Cont,740,8TH                          ST,34.0539,-118.2756,11,2023,2023-11-21
04/26/2021 12:00:00 AM,04/21/2021 12:00:00 AM,1640,19,Mission,1,330,BURGLARY FROM VEHICLE,1609 0344,34,F,F,101,STREET,NA,,IC,Invest Cont,330,SATICOY                      ST,34.2094,-118.4293,04,2021,2021-04-21
05/26/2022 12:00:00 AM,05/26/2022 12:00:00 AM,1300,1,Central,1,440,THEFT PLAIN - PETTY ($950 & UNDER),1218 0344 1822 2032,32,F,B,702,OFFICE BUILDING/OFFICE,NA,,IC,Invest Cont,440,500    SAN JULIAN                   ST,34.0446,-118.245,05,2022,2022-05-26
02/03/2023 12:00:00 AM,01/11/2023 12:00:00 AM,1520,9,Van Nuys,1,331,THEFT FROM MOTOR VEHICLE - GRAND ($950.01 AND OVER),0344 1300 1606,50,F,F,101,STREET,NA,,IC,Invest Cont,331,14900    BURBANK                      BL,34.1721,-118.4574,01,2023,2023-01-11
11/05/2023 12:00:00 AM,11/05/2023 12:00:00 AM,850,3,Southwest,2,624,BATTERY - SIMPLE ASSAULT,1251 0913 0416 0446 0361,30,F,B,502,"MULTI-UNIT DWELLING (APARTMENT, DUPLEX, ETC)",400,"STRONG-ARM (HANDS, FIST, FEET OR BODILY FORCE)",IC,Invest Cont,624,2200 S  WESTERN                      AV,34.0363,-118.3089,11,2023,2023-11-05
01/22/2023 12:00:00 AM,01/19/2023 12:00:00 AM,2200,15,N Hollywood,1,331,THEFT FROM MOTOR VEHICLE - GRAND ($950.01 AND OVER),1300 0344,32,F,W,101,STREET,NA,,IC,Invest Cont,331,4200    BEEMAN                       AV,34.1467,-118.4073,01,2023,2023-01-19
01/30/2020 12:00:00 AM,01/30/2020 12:00:00 AM,1949,18,Southeast,1,220,ATTEMPTED ROBBERY,0337 1822 0443 0345 0605 0387 1310 0202,44,M,H,103,ALLEY,219,SCREWDRIVER,IC,Invest Cont,220,1100 E  112TH                        ST,33.9328,-118.2561,01,2020,2020-01-30
09/13/2023 12:00:00 AM,09/12/2023 12:00:00 AM,2209,3,Southwest,1,310,BURGLARY,0344 1822 1601 1607,22,X,X,722,COLLEGE/JUNIOR COLLEGE/UNIVERSITY,500,UNKNOWN WEAPON/OTHER WEAPON,AA,Adult Arrest,310,700 W  ADAMS                        BL,34.0292,-118.2782,09,2023,2023-09-12
02/21/2021 12:00:00 AM,02/21/2021 12:00:00 AM,1227,3,Southwest,1,648,ARSON,1501,27,F,B,122,"VEHICLE, PASSENGER/TRUCK",506,FIRE,IC,Invest Cont,648,600 W  40TH                         PL,34.0106,-118.2842,02,2021,2021-02-21
07/16/2023 12:00:00 AM,07/16/2023 12:00:00 AM,1,17,Devonshire,1,331,THEFT FROM MOTOR VEHICLE - GRAND ($950.01 AND OVER),0344 1602 0385,55,M,W,101,STREET,NA,,IC,Invest Cont,331,8900    VALJEAN                      AV,34.232,-118.4873,07,2023,2023-07-16
06/18/2023 12:00:00 AM,06/18/2023 12:00:00 AM,1305,1,Central,2,354,THEFT OF IDENTITY,0929 0930 1822,26,F,F,502,"MULTI-UNIT DWELLING (APARTMENT, DUPLEX, ETC)",NA,,IC,Invest Cont,354,1200 S  OLIVE                        ST,34.0394,-118.2623,06,2023,2023-06-18
08/07/2023 12:00:00 AM,08/07/2023 12:00:00 AM,2145,18,Southeast,2,624,BATTERY - SIMPLE ASSAULT,0447 0913 2004 0329 0408,42,F,B,501,SINGLE FAMILY DWELLING,400,"STRONG-ARM (HANDS, FIST, FEET OR BODILY FORCE)",AA,Adult Arrest,624,200 W  119TH                        ST,33.9247,-118.2761,08,2023,2023-08-07
03/31/2022 12:00:00 AM,03/31/2022 12:00:00 AM,830,9,Van Nuys,2,745,VANDALISM - MISDEAMEANOR ($399 OR UNDER),0329,36,M,A,503,HOTEL,NA,,IC,Invest Cont,745,13500    SHERMAN                      WY,34.205,-118.4339,03,2022,2022-03-31
09/01/2022 12:00:00 AM,08/31/2022 12:00:00 AM,2230,5,Harbor,1,210,ROBBERY,0344 0427 0416 0446 0377 1822 0334 0302 0305 1402,55,M,H,503,HOTEL,101,REVOLVER,IC,Invest Cont,210,500 S  HARBOR                       BL,33.7407,-118.2798,08,2022,2022-08-31
02/07/2021 12:00:00 AM,02/06/2021 12:00:00 AM,2000,19,Mission,1,330,BURGLARY FROM VEHICLE,0344 1609 1402,43,M,H,101,STREET,NA,,IC,Invest Cont,330,LANARK                       ST,34.218,-118.4488,02,2021,2021-02-06
04/10/2020 12:00:00 AM,04/10/2020 12:00:00 AM,1810,2,Rampart,2,850,INDECENT EXPOSURE,0216 0529 1822,21,F,A,102,SIDEWALK,515,PHYSICAL PRESENCE,IC,Invest Cont,850,600 N  KENMORE                      AV,34.0813,-118.2966,04,2020,2020-04-10
02/14/2023 12:00:00 AM,02/02/2023 12:00:00 AM,5,13,Newton,2,354,THEFT OF IDENTITY,0922,34,F,H,501,SINGLE FAMILY DWELLING,NA,,IC,Invest Cont,354,400 E  56TH                         ST,33.9915,-118.2674,02,2023,2023-02-02
07/01/2023 12:00:00 AM,06/30/2023 12:00:00 AM,2345,10,West Valley,1,420,THEFT FROM MOTOR VEHICLE - PETTY ($950 & UNDER),1300 0352 1822 0344,48,M,W,501,SINGLE FAMILY DWELLING,NA,,IC,Invest Cont,420,7000    ALDEA                        AV,34.1975,-118.5088,06,2023,2023-06-30
03/18/2020 12:00:00 AM,03/18/2020 12:00:00 AM,115,17,Devonshire,2,624,BATTERY - SIMPLE ASSAULT,0417 0416 0913 1817 1206 1816,54,F,W,505,MOTEL,400,"STRONG-ARM (HANDS, FIST, FEET OR BODILY FORCE)",AO,Adult Other,624,15700    ROSCOE                       BL,34.2249,-118.4792,03,2020,2020-03-18
06/29/2022 12:00:00 AM,06/29/2022 12:00:00 AM,1150,12,77th Street,2,624,BATTERY - SIMPLE ASSAULT,0416 0305,36,F,H,101,STREET,400,"STRONG-ARM (HANDS, FIST, FEET OR BODILY FORCE)",IC,Invest Cont,624,5800    WEST                         BL,33.989,-118.3352,06,2022,2022-06-29
01/07/2022 12:00:00 AM,12/22/2021 12:00:00 AM,1300,4,Hollenbeck,1,310,BURGLARY,0913 0344 0358,23,M,H,221,PUBLIC STORAGE,NA,,IC,Invest Cont,310,4500 N  HUNTINGTON                   DR,34.0881,-118.1877,12,2021,2021-12-22
03/14/2022 12:00:00 AM,03/11/2022 12:00:00 AM,1120,19,Mission,2,740,"VANDALISM - FELONY ($400 & OVER, ALL CHURCH VANDALISMS)",0329,34,M,H,101,STREET,NA,,IC,Invest Cont,740,SAN FERNANDO                 RD,34.2997,-118.4599,03,2022,2022-03-11
01/31/2021 12:00:00 AM,01/31/2021 12:00:00 AM,120,2,Rampart,2,930,CRIMINAL THREATS - NO WEAPON DISPLAYED,0421 0104 1300 1822,22,M,W,301,GAS STATION,511,VERBAL THREAT,IC,Invest Cont,930,4500    MELROSE                      AV,34.0873,-118.296,01,2021,2021-01-31
08/24/2020 12:00:00 AM,08/24/2020 12:00:00 AM,1720,20,Olympic,2,745,VANDALISM - MISDEAMEANOR ($399 OR UNDER),0913 2000 0329 1241 1821,47,M,W,501,SINGLE FAMILY DWELLING,NA,,AO,Adult Other,745,300 N  BRONSON                      AV,34.0762,-118.3179,08,2020,2020-08-24
05/25/2023 12:00:00 AM,05/25/2023 12:00:00 AM,130,20,Olympic,2,624,BATTERY - SIMPLE ASSAULT,0913 0603 0361 2002 0400 0443 0432 1300 1310 1309,21,M,O,501,SINGLE FAMILY DWELLING,400,"STRONG-ARM (HANDS, FIST, FEET OR BODILY FORCE)",AO,Adult Other,624,1700 W  20TH                         ST,34.0382,-118.2946,05,2023,2023-05-25
11/12/2022 12:00:00 AM,11/12/2022 12:00:00 AM,950,21,Topanga,1,210,ROBBERY,0325 0945 0416 1822,35,M,X,242,"DISCOUNT STORE (99 CENT,DOLLAR,ETC.",400,"STRONG-ARM (HANDS, FIST, FEET OR BODILY FORCE)",AO,Adult Other,210,6800    DE SOTO                      AV,34.1938,-118.5884,11,2022,2022-11-12
02/15/2021 12:00:00 AM,02/15/2021 12:00:00 AM,1800,14,Pacific,1,520,VEHICLE - ATTEMPT STOLEN,0344 1300,42,M,W,101,STREET,NA,,IC,Invest Cont,520,1300    VIENNA                       WY,34.001,-118.4532,02,2021,2021-02-15
07/07/2023 12:00:00 AM,07/07/2023 12:00:00 AM,1700,17,Devonshire,2,740,"VANDALISM - FELONY ($400 & OVER, ALL CHURCH VANDALISMS)",0913 2004 2000 0329 1814,34,F,H,501,SINGLE FAMILY DWELLING,NA,,AO,Adult Other,740,19000    PARTHENIA                    ST,34.2282,-118.547,07,2023,2023-07-07
06/26/2022 12:00:00 AM,06/26/2022 12:00:00 AM,1415,12,77th Street,2,903,CONTEMPT OF COURT,0913 2038 2004 1817,53,F,H,501,SINGLE FAMILY DWELLING,NA,,AO,Adult Other,903,5600 S  VERMONT                      AV,33.9921,-118.298,06,2022,2022-06-26
08/18/2023 12:00:00 AM,08/18/2023 12:00:00 AM,1300,15,N Hollywood,2,626,INTIMATE PARTNER - SIMPLE ASSAULT,2000 1402 0400,24,M,O,502,"MULTI-UNIT DWELLING (APARTMENT, DUPLEX, ETC)",400,"STRONG-ARM (HANDS, FIST, FEET OR BODILY FORCE)",AA,Adult Arrest,626,10900    BLUFFSIDE                    DR,34.1412,-118.3681,08,2023,2023-08-18
07/27/2021 12:00:00 AM,07/22/2021 12:00:00 AM,1700,10,West Valley,1,420,THEFT FROM MOTOR VEHICLE - PETTY ($950 & UNDER),0344 1251 1822,37,M,A,101,STREET,NA,,IC,Invest Cont,420,5300    ZELZAH                       AV,34.167,-118.522,07,2021,2021-07-22
09/21/2023 12:00:00 AM,05/04/2023 12:00:00 AM,800,21,Topanga,1,341,"THEFT-GRAND ($950.01 & OVER)EXCPT,GUNS,FOWL,LIVESTK,PROD",1822 0344,78,M,O,502,"MULTI-UNIT DWELLING (APARTMENT, DUPLEX, ETC)",NA,,IC,Invest Cont,341,6800    MILWOOD                      AV,34.1938,-118.5943,05,2023,2023-05-04
03/22/2022 12:00:00 AM,08/11/2021 12:00:00 AM,1200,6,Hollywood,1,341,"THEFT-GRAND ($950.01 & OVER)EXCPT,GUNS,FOWL,LIVESTK,PROD",1202 1822 0344,62,F,B,501,SINGLE FAMILY DWELLING,NA,,IC,Invest Cont,341,2300    HOLLYRIDGE                   DR,34.1107,-118.3192,08,2021,2021-08-11
09/18/2020 12:00:00 AM,09/18/2020 12:00:00 AM,1800,14,Pacific,1,330,BURGLARY FROM VEHICLE,0344 1300 1607,42,F,O,710,OTHER PREMISE,NA,,IC,Invest Cont,330,10300    REGENT                       ST,34.023,-118.4051,09,2020,2020-09-18
05/10/2022 12:00:00 AM,05/09/2022 12:00:00 AM,2300,9,Van Nuys,2,624,BATTERY - SIMPLE ASSAULT,0416 0446 0429 1810,22,F,H,501,SINGLE FAMILY DWELLING,400,"STRONG-ARM (HANDS, FIST, FEET OR BODILY FORCE)",AO,Adult Other,624,14100    ARCHWOOD                     ST,34.1929,-118.44,05,2022,2022-05-09
09/14/2020 12:00:00 AM,09/14/2020 12:00:00 AM,1040,13,Newton,1,230,"ASSAULT WITH DEADLY WEAPON, AGGRAVATED ASSAULT",1822 0447 2004,50,X,X,101,STREET,212,BOTTLE,AA,Adult Arrest,230,WASHINGTON                   BL,34.035,-118.2734,09,2020,2020-09-14
12/09/2022 12:00:00 AM,12/09/2022 12:00:00 AM,545,14,Pacific,2,956,"LETTERS, LEWD  -  TELEPHONE CALLS, LEWD",1501,29,F,W,501,SINGLE FAMILY DWELLING,511,VERBAL THREAT,IC,Invest Cont,956,7900    KITTYHAWK                    AV,33.9673,-118.3822,12,2022,2022-12-09
02/23/2020 12:00:00 AM,02/23/2020 12:00:00 AM,1500,2,Rampart,1,230,"ASSAULT WITH DEADLY WEAPON, AGGRAVATED ASSAULT",0334 1402 0421 2004 2051 2049 1822 2033 0907 0910,24,M,H,801,MTA BUS,200,KNIFE WITH BLADE 6INCHES OR LESS,IC,Invest Cont,230,600 S  ALVARADO                     ST,34.0596,-118.2749,02,2020,2020-02-23
12/30/2022 12:00:00 AM,12/29/2022 12:00:00 AM,920,11,Northeast,1,210,ROBBERY,0334 0358 1300 0344 1420 1822 0213,19,M,O,101,STREET,102,HAND GUN,IC,Invest Cont,210,3200    EAGLE ROCK                   BL,34.1097,-118.2375,12,2022,2022-12-29
06/24/2022 12:00:00 AM,06/24/2022 12:00:00 AM,1430,7,Wilshire,2,624,BATTERY - SIMPLE ASSAULT,0913 2000 1814 0416 1309,35,M,W,101,STREET,307,VEHICLE,AO,Adult Other,624,VENICE,34.046,-118.3454,06,2022,2022-06-24
06/15/2021 12:00:00 AM,06/15/2021 12:00:00 AM,1055,3,Southwest,2,753,DISCHARGE FIREARMS/SHOTS FIRED,1100 1407 1309 1822,20,X,X,101,STREET,106,UNKNOWN FIREARM,IC,Invest Cont,753,2000 W  MARTIN LUTHER KING JR        BL,34.0146,-118.313,06,2021,2021-06-15
02/12/2022 12:00:00 AM,02/12/2022 12:00:00 AM,205,13,Newton,2,624,BATTERY - SIMPLE ASSAULT,1822 1266 0416 0446,44,M,B,203,OTHER BUSINESS,400,"STRONG-ARM (HANDS, FIST, FEET OR BODILY FORCE)",IC,Invest Cont,624,1000 S  SAN PEDRO                    ST,34.0359,-118.2517,02,2022,2022-02-12
02/26/2023 12:00:00 AM,02/26/2023 12:00:00 AM,515,12,77th Street,1,230,"ASSAULT WITH DEADLY WEAPON, AGGRAVATED ASSAULT",1240 0342 0431 0913,23,M,H,101,STREET,512,MACE/PEPPER SPRAY,IC,Invest Cont,230,70TH                         ST,33.9765,-118.2827,02,2023,2023-02-26
08/23/2020 12:00:00 AM,08/22/2020 12:00:00 AM,1430,7,Wilshire,1,310,BURGLARY,1822 0344,54,M,H,203,OTHER BUSINESS,NA,,IC,Invest Cont,310,5600 W  MELROSE                      AV,34.0835,-118.3231,08,2020,2020-08-22
08/10/2020 12:00:00 AM,08/10/2020 12:00:00 AM,1425,12,77th Street,2,624,BATTERY - SIMPLE ASSAULT,2055 1516 2036 1223 1822 0429 0319 0903 1309,30,M,H,103,ALLEY,400,"STRONG-ARM (HANDS, FIST, FEET OR BODILY FORCE)",IC,Invest Cont,624,AVALON                       BL,33.9656,-118.2651,08,2020,2020-08-10
12/02/2021 12:00:00 AM,11/20/2021 12:00:00 AM,2200,15,N Hollywood,2,626,INTIMATE PARTNER - SIMPLE ASSAULT,2000 0416 1814 2004,49,F,W,502,"MULTI-UNIT DWELLING (APARTMENT, DUPLEX, ETC)",400,"STRONG-ARM (HANDS, FIST, FEET OR BODILY FORCE)",AO,Adult Other,626,12500    OXNARD                       ST,34.1849,-118.4095,11,2021,2021-11-20
03/12/2023 12:00:00 AM,03/12/2023 12:00:00 AM,1445,2,Rampart,1,210,ROBBERY,1822 0344 1309 0400 0342 1402 1416,18,F,H,101,STREET,400,"STRONG-ARM (HANDS, FIST, FEET OR BODILY FORCE)",AA,Adult Arrest,210,VENICE,34.0424,-118.281,03,2023,2023-03-12
12/01/2021 12:00:00 AM,12/01/2021 12:00:00 AM,1750,9,Van Nuys,2,626,INTIMATE PARTNER - SIMPLE ASSAULT,2000 0444,50,F,H,502,"MULTI-UNIT DWELLING (APARTMENT, DUPLEX, ETC)",400,"STRONG-ARM (HANDS, FIST, FEET OR BODILY FORCE)",AO,Adult Other,626,7400    WOODMAN                      AV,34.2048,-118.4312,12,2021,2021-12-01
02/18/2023 12:00:00 AM,02/16/2023 12:00:00 AM,230,9,Van Nuys,1,331,THEFT FROM MOTOR VEHICLE - GRAND ($950.01 AND OVER),0344,53,F,W,218,BEAUTY/BARBER SHOP,NA,,IC,Invest Cont,331,5100    VISTA DEL MONTE              AV,34.1631,-118.4499,02,2023,2023-02-16
03/06/2022 12:00:00 AM,07/15/2021 12:00:00 AM,1500,17,Devonshire,1,121,"RAPE, FORCIBLE",0400 2000 1814 0913 1259 0500 1310 1309 0527 0516,17,F,H,122,"VEHICLE, PASSENGER/TRUCK",400,"STRONG-ARM (HANDS, FIST, FEET OR BODILY FORCE)",AO,Adult Other,121,9200    GERALD                       AV,34.2381,-118.4967,07,2021,2021-07-15
04/14/2022 12:00:00 AM,04/14/2022 12:00:00 AM,30,2,Rampart,1,330,BURGLARY FROM VEHICLE,1822 1307 0329 1302 0344,26,F,B,123,PARKING UNDERGROUND/BUILDING,NA,,IC,Invest Cont,330,300 S  WESTLAKE                     AV,34.0625,-118.2715,04,2022,2022-04-14
12/02/2020 12:00:00 AM,12/02/2020 12:00:00 AM,130,8,West LA,2,745,VANDALISM - MISDEAMEANOR ($399 OR UNDER),0329,60,M,W,502,"MULTI-UNIT DWELLING (APARTMENT, DUPLEX, ETC)",NA,,IC,Invest Cont,745,10600    HOLMAN                       AV,34.0548,-118.4316,12,2020,2020-12-02
11/07/2022 12:00:00 AM,10/02/2022 12:00:00 AM,1000,18,Southeast,1,761,BRANDISH WEAPON,1258 2024 0913 1251 0334 0421 0432,11,M,H,729,SPECIALTY SCHOOL/OTHER,200,KNIFE WITH BLADE 6INCHES OR LESS,JO,Juv Other,761,9700 S  MAIN                         ST,33.9483,-118.2739,10,2022,2022-10-02
02/22/2023 12:00:00 AM,02/22/2023 12:00:00 AM,2310,15,N Hollywood,1,331,THEFT FROM MOTOR VEHICLE - GRAND ($950.01 AND OVER),0344,40,F,H,101,STREET,NA,,IC,Invest Cont,331,4100    VANETTA                      PL,34.1395,-118.4051,02,2023,2023-02-22
11/10/2021 12:00:00 AM,11/06/2021 12:00:00 AM,1505,7,Wilshire,1,440,THEFT PLAIN - PETTY ($950 & UNDER),0344,51,F,W,119,"PORCH, RESIDENTIAL",NA,,IC,Invest Cont,440,1800    12TH                         AV,34.0399,-118.3285,11,2021,2021-11-06
05/24/2023 12:00:00 AM,02/11/2023 12:00:00 AM,1305,19,Mission,2,354,THEFT OF IDENTITY,0922 1822,44,F,H,501,SINGLE FAMILY DWELLING,NA,,IC,Invest Cont,354,9800    WOODALE                      AV,34.2488,-118.4367,02,2023,2023-02-11
12/21/2020 12:00:00 AM,12/21/2020 12:00:00 AM,1645,21,Topanga,2,626,INTIMATE PARTNER - SIMPLE ASSAULT,2000 0416 0400,31,M,B,502,"MULTI-UNIT DWELLING (APARTMENT, DUPLEX, ETC)",400,"STRONG-ARM (HANDS, FIST, FEET OR BODILY FORCE)",AO,Adult Other,626,9000    OWENSMOUTH                   AV,34.2337,-118.6017,12,2020,2020-12-21
10/02/2022 12:00:00 AM,10/02/2022 12:00:00 AM,1900,1,Central,1,210,ROBBERY,1822 0305 0355 0334 0416 1281 0429 0302 0344,34,M,H,108,PARKING LOT,106,UNKNOWN FIREARM,IC,Invest Cont,210,300 S  MAIN                         ST,34.0495,-118.2459,10,2022,2022-10-02
08/31/2023 12:00:00 AM,08/30/2023 12:00:00 AM,1300,18,Southeast,1,210,ROBBERY,0336 0346 1822 0302 0449 0334 0308 0355 0432,47,M,H,102,SIDEWALK,106,UNKNOWN FIREARM,IC,Invest Cont,210,700 W  COLDEN                       AV,33.9492,-118.287,08,2023,2023-08-30
08/26/2021 12:00:00 AM,08/26/2021 12:00:00 AM,1520,3,Southwest,1,440,THEFT PLAIN - PETTY ($950 & UNDER),0344 1822 1309,36,M,O,108,PARKING LOT,NA,,AO,Adult Other,440,1200    EXPOSITION                   BL,34.0184,-118.2952,08,2021,2021-08-26
07/02/2022 12:00:00 AM,07/02/2022 12:00:00 AM,1800,16,Foothill,2,740,"VANDALISM - FELONY ($400 & OVER, ALL CHURCH VANDALISMS)",0329 1300 2004,31,F,H,122,"VEHICLE, PASSENGER/TRUCK",310,CONCRETE BLOCK/BRICK,AA,Adult Arrest,740,VINELAND,34.2157,-118.3703,07,2022,2022-07-02
04/03/2023 12:00:00 AM,04/03/2023 12:00:00 AM,1800,6,Hollywood,2,810,"SEX,UNLAWFUL(INC MUTUAL CONSENT, PENETRATION W/ FRGN OBJ",0533 1814 0913 1259 1276,17,F,H,502,"MULTI-UNIT DWELLING (APARTMENT, DUPLEX, ETC)",NA,,IC,Invest Cont,810,5400    SIERRA VISTA                 AV,34.0895,-118.3092,04,2023,2023-04-03
01/28/2020 12:00:00 AM,01/28/2020 12:00:00 AM,100,10,West Valley,2,903,CONTEMPT OF COURT,0906 2038 1814,35,F,H,501,SINGLE FAMILY DWELLING,NA,,AO,Adult Other,903,6900    TOPEKA                       DR,34.1962,-118.546,01,2020,2020-01-28
09/23/2021 12:00:00 AM,09/22/2021 12:00:00 AM,2000,8,West LA,1,480,BIKE - STOLEN,0344 0397 1822,30,F,W,502,"MULTI-UNIT DWELLING (APARTMENT, DUPLEX, ETC)",NA,,IC,Invest Cont,480,11900    KIOWA                        AV,34.0468,-118.4678,09,2021,2021-09-22
09/29/2021 12:00:00 AM,09/29/2021 12:00:00 AM,1400,16,Foothill,1,210,ROBBERY,0344 0416 1218,24,M,W,101,STREET,114,AIR PISTOL/REVOLVER/RIFLE/BB GUN,IC,Invest Cont,210,7700    LANKERSHIM                   BL,34.2103,-118.3878,09,2021,2021-09-29
02/03/2022 12:00:00 AM,02/03/2022 12:00:00 AM,245,1,Central,2,740,"VANDALISM - FELONY ($400 & OVER, ALL CHURCH VANDALISMS)",1414 0329 1822 1307,38,M,H,122,"VEHICLE, PASSENGER/TRUCK",NA,,IC,Invest Cont,740,400 W  PICO                         BL,34.042,-118.2625,02,2022,2022-02-03
10/06/2022 12:00:00 AM,09/20/2022 12:00:00 AM,1208,13,Newton,2,930,CRIMINAL THREATS - NO WEAPON DISPLAYED,0421 1906 0319 0555 0913,32,F,H,501,SINGLE FAMILY DWELLING,511,VERBAL THREAT,IC,Invest Cont,930,500 E  25TH                         ST,34.024,-118.2638,09,2022,2022-09-20
11/02/2022 12:00:00 AM,11/01/2022 12:00:00 AM,1630,21,Topanga,1,330,BURGLARY FROM VEHICLE,0344,32,M,H,123,PARKING UNDERGROUND/BUILDING,NA,,IC,Invest Cont,330,6200    TOPANGA CANYON               BL,34.1829,-118.6059,11,2022,2022-11-01
01/11/2020 12:00:00 AM,01/11/2020 12:00:00 AM,1800,21,Topanga,1,442,SHOPLIFTING - PETTY THEFT ($950 & UNDER),0325,35,M,X,404,DEPARTMENT STORE,NA,,IC,Invest Cont,442,21900    VANOWEN                      ST,34.1938,-118.6044,01,2020,2020-01-11
03/28/2022 12:00:00 AM,03/28/2022 12:00:00 AM,1230,8,West LA,2,624,BATTERY - SIMPLE ASSAULT,0400 2004,42,M,W,101,STREET,400,"STRONG-ARM (HANDS, FIST, FEET OR BODILY FORCE)",IC,Invest Cont,624,2000    CORINTH                      AV,34.0404,-118.4447,03,2022,2022-03-28
08/28/2023 12:00:00 AM,08/28/2023 12:00:00 AM,1100,18,Southeast,1,440,THEFT PLAIN - PETTY ($950 & UNDER),0913 1300 0344,24,M,B,501,SINGLE FAMILY DWELLING,NA,,IC,Invest Cont,440,10800    JUNIPER                      ST,33.9365,-118.2333,08,2023,2023-08-28
07/18/2020 12:00:00 AM,07/18/2020 12:00:00 AM,1230,1,Central,2,624,BATTERY - SIMPLE ASSAULT,0416 0305,36,F,H,102,SIDEWALK,400,"STRONG-ARM (HANDS, FIST, FEET OR BODILY FORCE)",IC,Invest Cont,624,500 S  SAN PEDRO                    ST,34.0437,-118.2455,07,2020,2020-07-18
12/26/2020 12:00:00 AM,12/25/2020 12:00:00 AM,300,9,Van Nuys,1,440,THEFT PLAIN - PETTY ($950 & UNDER),0344 1420 1822,62,M,W,203,OTHER BUSINESS,NA,,AO,Adult Other,440,13600    VENTURA                      BL,34.1478,-118.4296,12,2020,2020-12-25
03/30/2021 12:00:00 AM,03/30/2021 12:00:00 AM,1215,7,Wilshire,1,331,THEFT FROM MOTOR VEHICLE - GRAND ($950.01 AND OVER),1300 0344 1606,49,M,B,416,THE BEVERLY CENTER,NA,,IC,Invest Cont,331,8500    BEVERLY                      BL,34.0761,-118.3772,03,2021,2021-03-30
07/11/2020 12:00:00 AM,07/10/2020 12:00:00 AM,2000,19,Mission,1,330,BURGLARY FROM VEHICLE,1605 0344,61,M,H,707,GARAGE/CARPORT,NA,,IC,Invest Cont,330,8500    CEDROS                       AV,34.2265,-118.4565,07,2020,2020-07-10
12/31/2021 12:00:00 AM,12/31/2021 12:00:00 AM,1200,9,Van Nuys,1,330,BURGLARY FROM VEHICLE,0344,61,F,H,108,PARKING LOT,NA,,IC,Invest Cont,330,14000    RIVERSIDE                    DR,34.1576,-118.4387,12,2021,2021-12-31
01/15/2021 12:00:00 AM,01/14/2021 12:00:00 AM,1900,6,Hollywood,1,330,BURGLARY FROM VEHICLE,1300 1822 1601 0344 0385,30,M,W,101,STREET,NA,,IC,Invest Cont,330,1300 N  POINSETTIA                   PL,34.0944,-118.3483,01,2021,2021-01-14
10/04/2022 12:00:00 AM,09/29/2022 12:00:00 AM,2330,20,Olympic,2,624,BATTERY - SIMPLE ASSAULT,0400 0416 1822 0555,33,M,B,501,SINGLE FAMILY DWELLING,400,"STRONG-ARM (HANDS, FIST, FEET OR BODILY FORCE)",AO,Adult Other,624,800 S  CATALINA                     ST,34.0577,-118.2954,09,2022,2022-09-29
05/29/2020 12:00:00 AM,05/29/2020 12:00:00 AM,2000,12,77th Street,1,230,"ASSAULT WITH DEADLY WEAPON, AGGRAVATED ASSAULT",1309 1822 0216 0445 0387 1402,46,M,H,501,SINGLE FAMILY DWELLING,500,UNKNOWN WEAPON/OTHER WEAPON,IC,Invest Cont,230,400 W  52ND                         PL,33.9951,-118.2807,05,2020,2020-05-29
03/22/2022 12:00:00 AM,03/21/2022 12:00:00 AM,640,16,Foothill,1,230,"ASSAULT WITH DEADLY WEAPON, AGGRAVATED ASSAULT",0302 0421 0933 0554,50,M,H,108,PARKING LOT,109,SEMI-AUTOMATIC PISTOL,AO,Adult Other,230,CORCORAN                     PL,34.2897,-118.4152,03,2022,2022-03-21
08/29/2022 12:00:00 AM,08/29/2022 12:00:00 AM,1900,12,77th Street,1,230,"ASSAULT WITH DEADLY WEAPON, AGGRAVATED ASSAULT",0913 0302 1309 1310 2004 1817,33,M,H,101,STREET,102,HAND GUN,AO,Adult Other,230,92ND                         ST,33.9527,-118.3003,08,2022,2022-08-29
08/24/2022 12:00:00 AM,08/23/2022 12:00:00 AM,915,9,Van Nuys,2,624,BATTERY - SIMPLE ASSAULT,0446 0417 1822,62,M,H,101,STREET,400,"STRONG-ARM (HANDS, FIST, FEET OR BODILY FORCE)",IC,Invest Cont,624,VESPER                       AV,34.1897,-118.4509,08,2022,2022-08-23
05/26/2023 12:00:00 AM,05/26/2023 12:00:00 AM,1215,2,Rampart,2,624,BATTERY - SIMPLE ASSAULT,0416 0603 1822 1236,20,F,H,502,"MULTI-UNIT DWELLING (APARTMENT, DUPLEX, ETC)",400,"STRONG-ARM (HANDS, FIST, FEET OR BODILY FORCE)",IC,Invest Cont,624,100 S  ALVARADO                     ST,34.0667,-118.2703,05,2023,2023-05-26
10/15/2021 12:00:00 AM,10/14/2021 12:00:00 AM,2300,19,Mission,2,624,BATTERY - SIMPLE ASSAULT,0416 0417,51,M,H,502,"MULTI-UNIT DWELLING (APARTMENT, DUPLEX, ETC)",400,"STRONG-ARM (HANDS, FIST, FEET OR BODILY FORCE)",IC,Invest Cont,624,9300 N  SEPULVEDA                    BL,34.2388,-118.4677,10,2021,2021-10-14
03/27/2020 12:00:00 AM,03/26/2020 12:00:00 AM,2015,6,Hollywood,1,440,THEFT PLAIN - PETTY ($950 & UNDER),0344,62,F,H,501,SINGLE FAMILY DWELLING,NA,,IC,Invest Cont,440,5200    FOUNTAIN                     AV,34.0952,-118.3025,03,2020,2020-03-26
09/07/2023 12:00:00 AM,09/04/2023 12:00:00 AM,2100,11,Northeast,1,420,THEFT FROM MOTOR VEHICLE - PETTY ($950 & UNDER),0344 1307,26,M,O,101,STREET,NA,,IC,Invest Cont,420,4600    KINGSWELL                    AV,34.1027,-118.2896,09,2023,2023-09-04
07/27/2023 12:00:00 AM,07/26/2023 12:00:00 AM,1700,1,Central,1,330,BURGLARY FROM VEHICLE,1609 0329 0344 1300 1307,30,M,B,101,STREET,NA,,IC,Invest Cont,330,4TH,34.0477,-118.2467,07,2023,2023-07-26
07/13/2022 12:00:00 AM,07/13/2022 12:00:00 AM,1600,1,Central,2,626,INTIMATE PARTNER - SIMPLE ASSAULT,2000 0913 1814 0416 0356 0329 1414,31,M,B,502,"MULTI-UNIT DWELLING (APARTMENT, DUPLEX, ETC)",400,"STRONG-ARM (HANDS, FIST, FEET OR BODILY FORCE)",AO,Adult Other,626,1300 S  HOPE                         ST,34.0395,-118.2657,07,2022,2022-07-13
06/17/2022 12:00:00 AM,06/04/2022 12:00:00 AM,1200,3,Southwest,2,740,"VANDALISM - FELONY ($400 & OVER, ALL CHURCH VANDALISMS)",2041 2000 1814 0329 0913,65,M,O,502,"MULTI-UNIT DWELLING (APARTMENT, DUPLEX, ETC)",NA,,IC,Invest Cont,740,4100    EXPOSITION                   BL,34.024,-118.3445,06,2022,2022-06-04
05/14/2022 12:00:00 AM,05/13/2022 12:00:00 AM,1440,12,77th Street,1,320,"BURGLARY, ATTEMPTED",1501,39,M,H,501,SINGLE FAMILY DWELLING,NA,,IC,Invest Cont,320,400 E  83RD                         ST,33.9637,-118.2657,05,2022,2022-05-13
06/23/2023 12:00:00 AM,06/15/2023 12:00:00 AM,30,6,Hollywood,1,341,"THEFT-GRAND ($950.01 & OVER)EXCPT,GUNS,FOWL,LIVESTK,PROD",1822 0344,47,F,W,501,SINGLE FAMILY DWELLING,NA,,IC,Invest Cont,341,1600    WINONA                       BL,34.1004,-118.3022,06,2023,2023-06-15
09/02/2022 12:00:00 AM,09/02/2022 12:00:00 AM,400,5,Harbor,2,626,INTIMATE PARTNER - SIMPLE ASSAULT,2002 2000 0444 1814 0913,42,F,H,501,SINGLE FAMILY DWELLING,400,"STRONG-ARM (HANDS, FIST, FEET OR BODILY FORCE)",IC,Invest Cont,626,1500 W  226TH                        ST,33.8214,-118.3037,09,2022,2022-09-02
04/12/2020 12:00:00 AM,04/12/2020 12:00:00 AM,40,10,West Valley,1,230,"ASSAULT WITH DEADLY WEAPON, AGGRAVATED ASSAULT",1402 0411 0913 0444 1420 0311 1817 1816,32,M,H,101,STREET,207,OTHER KNIFE,AA,Adult Arrest,230,18400    COLLINS                      ST,34.1749,-118.5344,04,2020,2020-04-12
01/30/2020 12:00:00 AM,01/30/2020 12:00:00 AM,1730,20,Olympic,1,310,BURGLARY,0344 1202 1822 2032,62,M,B,502,"MULTI-UNIT DWELLING (APARTMENT, DUPLEX, ETC)",NA,,IC,Invest Cont,310,2200 W  15TH                         ST,34.0453,-118.2864,01,2020,2020-01-30
07/06/2021 12:00:00 AM,07/06/2021 12:00:00 AM,1510,1,Central,2,740,"VANDALISM - FELONY ($400 & OVER, ALL CHURCH VANDALISMS)",0329 1822 0417 1309,46,F,H,101,STREET,400,"STRONG-ARM (HANDS, FIST, FEET OR BODILY FORCE)",AO,Adult Other,740,700 S  SAN PEDRO                    ST,34.0404,-118.2504,07,2021,2021-07-06
03/03/2022 12:00:00 AM,03/03/2022 12:00:00 AM,2020,19,Mission,2,624,BATTERY - SIMPLE ASSAULT,0416 2024 0913 0561,48,M,H,502,"MULTI-UNIT DWELLING (APARTMENT, DUPLEX, ETC)",400,"STRONG-ARM (HANDS, FIST, FEET OR BODILY FORCE)",JO,Juv Other,624,9100    LANGDON                      AV,34.2356,-118.4698,03,2022,2022-03-03
04/09/2023 12:00:00 AM,03/26/2023 12:00:00 AM,300,9,Van Nuys,1,420,THEFT FROM MOTOR VEHICLE - PETTY ($950 & UNDER),1300 1606 0344,36,F,B,101,STREET,NA,,IC,Invest Cont,420,6800 N  SEPULVEDA                    BL,34.1939,-118.4662,03,2023,2023-03-26
02/24/2023 12:00:00 AM,02/23/2023 12:00:00 AM,1257,9,Van Nuys,1,440,THEFT PLAIN - PETTY ($950 & UNDER),2000 0344 0446,24,F,H,101,STREET,400,"STRONG-ARM (HANDS, FIST, FEET OR BODILY FORCE)",AO,Adult Other,440,14700    ERWIN                        ST,34.1836,-118.4531,02,2023,2023-02-23
11/28/2022 12:00:00 AM,11/27/2022 12:00:00 AM,945,8,West LA,1,330,BURGLARY FROM VEHICLE,0344,31,M,W,117,BEACH,NA,,IC,Invest Cont,330,15100    PACIFIC COAST                HY,34.0314,-118.5254,11,2022,2022-11-27
